id,address_number,street_name,place_name,state_name,zip_code,lat,lon
P003257052,450,N LARAMOE,Chicago,IL,,,
P003133410,5950,N SHERIDAN,Chicago,IL,,41.99021996560211,-87.65538944547168
P003117836,650,E 67TH ST,Chicago,IL,,41.77308387521843,-87.60905911196663
P003199534,2450,E 75TH ST,Chicago,IL,,41.759008,-87.56476299999999
P003949954,1950,W PETERSON,Chicago,IL,,41.99070799999999,-87.67775499999998
P003248459,950,W MARQUETTE,Chicago,IL,,41.772413,-87.64883899999998
P003967557,1950,N MILWAUKEE,Chicago,IL,,41.916976017519055,-87.6876616516327
P002085714,150,W 18TH ST,Chicago,IL,,41.857761,-87.63376199999998
P003329713,2150,S ARCHER,Chicago,IL,,41.85321341550211,-87.63409007932974
P003311932,2650,S KEDZIE,Chicago,IL,,41.87732599999999,-87.70601499999998
P003795753,5050,W AUGUSTA,Chicago,IL,,41.89861449999998,-87.75278250000069
P003222201,3350,W OGDEN,Chicago,IL,,41.85647622448979,-87.70966481632652
P003304106,1050,W BRYN MAWR,Chicago,IL,,41.98367330386539,-87.65711399223068
P003056160,4650,N ST LOUIS,Chicago,IL,,41.965665587323286,-87.7157255787262
P003968761,2050,N MILWAUKEE,Chicago,IL,,41.88681499999999,-87.64133599999998
P003223034,3850,W CERMAK RD,Chicago,IL,,41.85155928571429,-87.72194342857142
P003054456,750,N MICHIGAN,Chicago,IL,,41.88447099999999,-87.62445199999998
P003007534,6350,S ASHLAND,Chicago,IL,,41.874251,-87.666686
P003952279,4950,N BROADWAY,Chicago,IL,,41.97222342857142,-87.65975869387755
P003860601,1250,W 87TH ST,Chicago,IL,,41.735909901982176,-87.65493785063299
P003257127,5750,W MADISON,Chicago,IL,,41.88204199999999,-87.62780599999998
P004001431,50,E RANDOLPH,Chicago,IL,,41.88449604941092,-87.6260426145629
P003220703,3850,W ROOSEVELT RD,Chicago,IL,,41.867341,-87.63719399999998
P003117841,1950,E 71ST ST,Chicago,IL,,41.76620521951219,-87.57738082926828
P003222240,3350,W CERMAK,Chicago,IL,,41.852854,-87.63677799999998
P003212897,150,S STATE ST,Chicago,IL,,41.880743,-87.62772699999998
P003140717,850,E 67TH ST,Chicago,IL,,41.77314870827272,-87.60485136504649
P003257157,4850,W MAYPOLE,Chicago,IL,,41.884435,-87.74664799999998
P003090506,11650,S MICHIGAN,Chicago,IL,,41.86753,-87.62402099999998
P002120070,2750,E 79TH ST,Chicago,IL,,41.75097999999999,-87.622996
P003012489,950,W NORTH,Chicago,IL,,41.91118099999999,-87.631682
P003797317,4850,W CHICAGO,Chicago,IL,,41.89664299999999,-87.63070499999998
P003063623,550,E 71ST ST,Chicago,IL,,41.765543,-87.62329499999998
P003117838,2350,W MARQUETTE RD,Chicago,IL,,41.77273,-87.62804399999999
P003927057,3250,W 26TH ST,Chicago,IL,,41.845469,-87.636031
P003134452,6050,N SHERIDAN,Chicago,IL,,41.99195699999999,-87.65544399999999
P003329033,3650,S DAMEN,Chicago,IL,,41.88001299999999,-87.67661199999998
P003013258,6150,N WINTHROP,Chicago,IL,,41.993772448005295,-87.6583301112214
P003257066,7350,S ASHLAND,Chicago,IL,,41.87163,-87.66643899999998
P003129691,6050,W FULLERTON,Chicago,IL,,41.923801664930856,-87.7772633573022
P003073491,750,N MICHIGAN,Chicago,IL,,41.88447099999999,-87.62445199999998
P003298527,3050,W 73RD ST,Chicago,IL,,41.76078664600339,-87.69938411255144
P003274554,2350,N ORCHARD,Chicago,IL,,41.924849256137925,-87.64631483841038
P003118332,1550,E 68TH ST,Chicago,IL,,41.77150467741935,-87.58717383870967
P003795755,550,N LAMON,Chicago,IL,,41.889779690950824,-87.74807418436052
P003248803,950,W ADAMS ST,Chicago,IL,,41.879438,-87.62935199999998
P003872851,2850,S CHRISTIANA,Chicago,IL,,41.840355658271584,-87.70857721121084
P003041321,6850,S MAPLEWOOD,Chicago,IL,,41.76940206328476,-87.687045046662
P003252264,2150,N ST LOUIS,Chicago,IL,,41.88546999999999,-87.71357899999998
P003257080,5050,W CHICAGO,Chicago,IL,,41.89664299999999,-87.63070499999998
P003858576,2750,E 76TH ST,Chicago,IL,,41.75652699999999,-87.61827599999998
P003274264,450,W KINZIE,Chicago,IL,,41.889124,-87.63809599999998
P003872027,5150,W CHICAGO,Chicago,IL,,41.89495010045195,-87.75453249657406
P003806186,4050,W MADISON,Chicago,IL,,41.8807101707003,-87.72691947739722
P003132630,5450,N KENMORE,Chicago,IL,,41.98096017752494,-87.65654052397609
P003122274,6150,N SHERIDAN RD,Chicago,IL,,41.99380299999999,-87.655501
P003164037,10250,S AVENUE L,Chicago,IL,,41.70911084849628,-87.53649103164415
P003274558,850,N MICHIGAN,Chicago,IL,,41.88447099999999,-87.62445199999998
P003118356,350,E 63RD ST,Chicago,IL,,41.78020399999999,-87.61755199999998
P003144767,450,W MARQUETTE,Chicago,IL,,41.77277,-87.62549299999998
P003133411,6150,N SHERIDAN,Chicago,IL,,41.99380299999999,-87.655501
P003995708,5350,S PEORIA,Chicago,IL,,41.88170099999999,-87.64969699999997
P003042942,1550,N KOSTNER,Chicago,IL,,41.90846011267058,-87.73630352872017
P003199003,2850,W DIVISION,Chicago,IL,,41.9029084952744,-87.69874299483804
P003103784,2250,S CLARK,Chicago,IL,,41.880696,-87.630853
P003360455,450,W 31ST ST,Chicago,IL,,41.83826799999999,-87.62963299999998
P003764487,250,N PULASKI,Chicago,IL,,41.88480768801469,-87.72578630415323
P003087626,7950,S COTTAGE,Chicago,IL,,41.7503710104564,-87.60521326795302
P003814526,6550,S MAY ST,Chicago,IL,,41.761436,-87.65280599999998
P003952282,5850,N BROADWAY,Chicago,IL,,41.933605,-87.64466299999998
P002514908,7950,S LANGLEY,Chicago,IL,,41.750089499982856,-87.60762823660667
P003047639,4050,W CERMAK,Chicago,IL,,41.852823,-87.63729499999998
P001969559,2450,W BERWYN,Chicago,IL,,41.978211,-87.655764
P003257154,50,N CENTRAL,Chicago,IL,,41.88120045452257,-87.71590474039965
P004001761,150,W JACKSON,Chicago,IL,,41.87812289313466,-87.6332421331011
P003129680,2250,N MEADE,Chicago,IL,,41.92197,-87.77808799999998
P003360459,250,W 26TH ST,Chicago,IL,,41.84551299999999,-87.63306699999998
P003249567,6350,S RHODES,Chicago,IL,,41.779174233055755,-87.61199579250373
P003157330,7050,S ASHLAND,Chicago,IL,,41.87163,-87.66643899999998
P003047168,2650,S CENTRAL PARK,Chicago,IL,,41.8433201562507,-87.71475755289651
P003107615,1650,W CORTLAND ST,Chicago,IL,,41.9160834135814,-87.66967945055114
P003829278,3150,S UNION,Chicago,IL,,41.83692157994965,-87.64381430261616
P003144769,1050,W 63RD STREET,Chicago,IL,,41.77998699999999,-87.63015
P003169576,750,E 47TH ST,Chicago,IL,,41.80928699999999,-87.62283599999999
P003795752,350,N LARAMIE,Chicago,IL,,41.88709596892358,-87.75532143545817
P003304301,5350,N BROADWAY,Chicago,IL,,41.97907093369431,-87.65994259482962
P003764480,4050,W LAKE ST,Chicago,IL,,41.885745,-87.62949799999998
P003373458,2550,S WHIPPLE,Chicago,IL,,41.84506999999999,-87.70137599999998
P003133491,2750,W DEVON,Chicago,IL,,41.997573707131096,-87.69881090964077
P003941429,4350,N CENTRAL,Chicago,IL,,41.95924999999999,-87.71797999999998
P003118113,350,E 43RD,Chicago,IL,,41.81649999999999,-87.625466
P003801753,11950,S MICHIGAN,Chicago,IL,,41.6768771894216,-87.62047734284184
P003235263,5050,W MADISON,Chicago,IL,,41.880418170423425,-87.75142094678141
P003251456,2750,N ARTESIAN,Chicago,IL,,41.93126704081632,-87.68909565306122
P003879537,3550,W 16TH ST,Chicago,IL,,41.85898799999999,-87.71398599999998
P003199541,750,E 62ND ST,Chicago,IL,,41.78222,-87.60662399999998
P003811739,950,W 63RD,Chicago,IL,,41.780011,-87.62823099999999
P003859532,1150,W 88TH ST,Chicago,IL,,41.734118,-87.65267999999998
P003212895,4350,W FULLERTON,Chicago,IL,,41.924542,-87.72188199999998
P003231644,3950,S ALBANY,Chicago,IL,,41.82263799999999,-87.70200599999998
P003117848,2050,E 71ST ST,Chicago,IL,,41.765543,-87.62329499999998
P003870727,2250,S WASHTENAW,Chicago,IL,,41.88062999999999,-87.69394299999998
P003144296,6350,S ASHLAND,Chicago,IL,,41.874251,-87.666686
P003108282,2750,N MILWAUKEE,Chicago,IL,,41.88681499999999,-87.64133599999998
P003261012,6250,S MARSHFIELD,Chicago,IL,,41.779913,-87.66543899999998
P003117837,6650,S ROCKWELL,Chicago,IL,,41.772356,-87.68834499999998
P003124016,5050,N BROADWAY,Chicago,IL,,41.933605,-87.64466299999998
P003015298,1850,W MONTROSE,Chicago,IL,,41.961499,-87.67567099999998
P003859531,3650,W ROOSEVELT,Chicago,IL,,41.867359,-87.63570699999998
P003118338,5450,S HALSTED,Chicago,IL,,41.88049199999999,-87.647322
P003012345,2250,N STOCKTON,Chicago,IL,,41.92293911168205,-87.6357527495772
P003177106,5650,W WAVELAND ST,Chicago,IL,,,
P003227689,2650,N MILWAUKEE,Chicago,IL,,41.92977543203837,-87.70856438907173
P003766276,1150,N KEYSTONE,Chicago,IL,,41.883346,-87.72717
P003216744,2350,W 50TH PL,Chicago,IL,,41.80205899999999,-87.68180999999998
P002085713,2050,S STATE,Chicago,IL,,41.85483617868365,-87.62713183212958
P003996201,1450,E 67TH ST,Chicago,IL,,41.772877,-87.62145699999998
P003257085,150,S CICERO,Chicago,IL,,41.87859699999999,-87.74520799999998
P003063620,550,E 71ST ST,Chicago,IL,,41.765543,-87.62329499999998
P003091778,350,W 110TH PL,Chicago,IL,,41.69340174246272,-87.63080198598247
P003257095,150,N PINE,Chicago,IL,,41.883281322716314,-87.76329171486941
P003178565,4350,W WILCOX,Chicago,IL,,41.87876517052847,-87.73421100803252
P003298517,2550,W 63RD ST,Chicago,IL,,41.780011,-87.62823099999999
P003208485,3050,E 79TH ST,Chicago,IL,,41.751103,-87.61572999999999
P003311364,2250,S TROY,Chicago,IL,,41.85063119944821,-87.70399556188723
P003941686,5050,W PENSACOLA,Chicago,IL,,41.959731664311406,-87.75379349996678
P003043642,1250,S CALIFORNIA,Chicago,IL,,41.87971199999999,-87.69624899999998
P003872311,3950,W 16TH,Chicago,IL,,42.317834999999995,-87.863182
P003299084,1350,S CANAL,Chicago,IL,,41.87995599999999,-87.63962699999998
P003122264,4850,N MAGNOLIA,Chicago,IL,,41.970576965836436,-87.66108476080143
P003968755,2550,N SACRAMENTO,Chicago,IL,,41.92778070987136,-87.7024021546824
P003879188,2250,S WASHTENAW,Chicago,IL,,41.88062999999999,-87.69394299999998
P003161996,5150,W CHICAGO,Chicago,IL,,41.89495010045195,-87.75453249657406
P003795766,750,N CICERO,Chicago,IL,,41.880498,-87.745278
P003134399,6650,N SHERIDAN RD,Chicago,IL,,42.00305865306122,-87.6607998367347
P002524260,3350,W MONTROSE,Chicago,IL,,41.96114399999999,-87.71190899999998
P003223029,4350,W CERMAK RD,Chicago,IL,,41.851536,-87.733418
P003168455,6850,S EAST END,Chicago,IL,,41.77065371925641,-87.58378969719122
P003329083,3150,S LOWE,Chicago,IL,,41.837189291194136,-87.64260143470163
P002183592,2950,E 79TH ST,Chicago,IL,,41.75097999999999,-87.622996
P003941434,6750,W ADDISON,Chicago,IL,,41.94550199999999,-87.79476799999998
P003298589,3750,W 16TH ST,Chicago,IL,,41.85893,-87.71888
P003043644,1950,S ALBANY,Chicago,IL,,41.85455,-87.70290299999998
P002509419,750,W 43RD ST,Chicago,IL,,41.816213,-87.64391599999998
P003222841,150,,Chicago,IL,,41.651808410459935,-87.61811559747788
P003256875,150,S LARAMIE,Chicago,IL,,41.87914998040424,-87.75502085449426
P003117106,2050,W 69TH ST,Chicago,IL,,41.76905699999999,-87.63136199999998
P003795381,650,N LAVERGNE,Chicago,IL,,41.89268992036214,-87.75062572001455
P003359934,3250,W 32ND PL,Chicago,IL,,41.83491,-87.659858
P003949953,1150,W WINONA,Chicago,IL,,41.97522699999999,-87.65848499999998
P002031156,7550,N SEELEY,Chicago,IL,,42.01870108163265,-87.68163744897959
P003162445,10750,S STATE ST,Chicago,IL,,41.880743,-87.62772699999998
P003257126,5450,W MADISON ST,Chicago,IL,,41.88204199999999,-87.62780599999998
P003980253,7950,S RACINE,Chicago,IL,,41.71069099999999,-87.652625
P003043643,1550,S KEDZIE,Chicago,IL,,41.88031699999999,-87.70609999999998
P003298671,550,N LAKE SHORE DR,Chicago,IL,,41.89191,-87.61421699999998
P003878157,3150,W 26TH,Chicago,IL,,41.844523,-87.70442599999998
P003274560,350,S MICHIGAN,Chicago,IL,,41.88131899999999,-87.62426099999998
P003073541,50,W NORTH,Chicago,IL,,41.91119173830461,-87.63105338044393
P003925907,2850,W JACKSON,Chicago,IL,,41.87742486391411,-87.6971373073495
P003164489,8950,S COMMERCIAL,Chicago,IL,,41.73279735983221,-87.55132050391519
P003225873,1750,W 79TH,Chicago,IL,,41.750304425555704,-87.66743546210066
P003764476,3450,W AUGUSTA,Chicago,IL,,41.89914,-87.71277499999998
P003222301,1250,S CALIFORNIA,Chicago,IL,,41.87971199999999,-87.69624899999998
P003811783,6050,S HALSTED,Chicago,IL,,41.78503899999999,-87.64491599999998
P003012344,2250,W STOCKTON,Chicago,IL,,,
P003878156,2450,S CALIFORNIA,Chicago,IL,,41.878345,-87.69621599999998
P003207751,8250,S EXCHANGE,Chicago,IL,,41.74527813121123,-87.552771593335
P003869930,1850,S PULASKI,Chicago,IL,,41.87976199999999,-87.72563699999998
P003207752,7950,S BURNHAM,Chicago,IL,,41.750712110234964,-87.55651278387833
P003139717,1850,E 70TH ST,Chicago,IL,,41.767947093982364,-87.5796698192843
P003968752,1850,N KEDZIE,Chicago,IL,,41.88230099999999,-87.70615999999998
P003157329,7050,S ASHLAND,Chicago,IL,,41.87163,-87.66643899999998
P002325714,2250,S LEAVITT,Chicago,IL,,41.880493,-87.68151799999998
P003221185,2550,S ALBANY,Chicago,IL,,41.879688,-87.70293599999998
P003284926,2350,N MANGO,Chicago,IL,,41.92279897944408,-87.76959651019868
P003162051,4850,W MADISON,Chicago,IL,,41.88204199999999,-87.62780599999998
P003879189,2750,W 22ND PL,Chicago,IL,,41.850993,-87.694807
P003298233,3650,W ROOSEVELT RD,Chicago,IL,,41.867359,-87.63570699999998
P003044539,7050,S HALSTED,Chicago,IL,,41.88049199999999,-87.647322
P003122266,5850,N LINCOLN,Chicago,IL,,41.98775613018032,-87.70295722006672
P003112124,6150,S EVANS,Chicago,IL,,41.78228969659608,-87.60722853262682
P003995501,6350,S FAIRFIELD,Chicago,IL,,41.77802094209285,-87.69214562271843
P003941281,5350,W BELMONT,Chicago,IL,,41.93865217064128,-87.76039158597173
P001872039,850,N DAMEN,Chicago,IL,,41.89709642019818,-87.67708537278327
P003091784,750,W 123RD ST,Chicago,IL,,41.670707,-87.624848
P003010784,150,W GRAND,Chicago,IL,,41.891646,-87.62965199999998
P003808256,10050,S MICHIGAN,Chicago,IL,,41.71148893875187,-87.61998571069395
P003235264,650,S HURON,Chicago,IL,,,
P003125799,6250,S M L K DR,Chicago,IL,,,
P003983328,1150,N ASHLAND,Chicago,IL,,41.88172099999999,-87.66687299999998
P003134451,6050,N SHERIDAN RD,Chicago,IL,,41.99195699999999,-87.65544399999999
P001990675,1850,W MELROSE,Chicago,IL,,41.94052467470892,-87.67513139266914
P003248809,950,W ADAMS ST,Chicago,IL,,41.879438,-87.62935199999998
P003136417,50,E 103RD ST,Chicago,IL,,41.707188660349004,-87.621804986716
P003231646,2650,W POPE JOHN PAUL,Chicago,IL,,41.8155907880428,-87.6913774823782
P003808257,11450,S PERRY,Chicago,IL,,41.686196,-87.625635
P003812704,1950,W 59TH STREET,Chicago,IL,,41.786638093764246,-87.67324518570551
P003045019,8050,S MANISTEE,Chicago,IL,,41.749100456469385,-87.55769821884506
P003007520,6550,S DAMEN,Chicago,IL,,41.88001299999999,-87.67661199999998
P003859153,9150,S ASHLAND,Chicago,IL,,41.87162599999999,-87.66661599999998
P003220368,3350,W 26 ST,Chicago,IL,,,
P003797303,4850,W MADISON,Chicago,IL,,41.88204199999999,-87.62780599999998
P003257054,4850,W MADISON ST,Chicago,IL,,41.88204199999999,-87.62780599999998
P002524271,3150,W BRYN MAWR,Chicago,IL,,41.98307599999999,-87.70816099999998
P003066614,5250,W FULLERTON,Chicago,IL,,41.924542,-87.72188199999998
P003114278,5550,S ASHLAND,Chicago,IL,,41.880167,-87.66684099999998
P003077566,12350,S HALSTED,Chicago,IL,,41.88049199999999,-87.647322
P003888028,50,W CHICAGO,Chicago,IL,,41.89664299999999,-87.63070499999998
P003927061,3650,W 26TH,Chicago,IL,,41.84435860000932,-87.7166454794287
P003299085,1350,S CANAL,Chicago,IL,,41.87995599999999,-87.63962699999998
P003871801,3750,W CHICAGO AVE,Chicago,IL,,41.89664299999999,-87.63070499999998
P003311363,2550,S SACRAMENTO,Chicago,IL,,41.87971900000001,-87.70116799999998
P003996253,1250,E 67TH ST,Chicago,IL,,41.772877,-87.62145699999998
P003879177,2450,S HOMAN,Chicago,IL,,41.84715046885381,-87.70998840392905
P003222336,1550,S KOMENSKY,Chicago,IL,,41.85995704804422,-87.72620955650976
P003251706,1550,W DIVISION,Chicago,IL,,41.90386199999999,-87.63392299999998
P002313072,1050,N CENTRAL,Chicago,IL,,41.88153799999999,-87.71584999999997
P003222755,50,W CHICAGO,Chicago,IL,,41.89664299999999,-87.63070499999998
P003806263,10450,S MICHIGAN,Chicago,IL,,41.70426499999999,-87.62059499999998
P003124231,5650,N BROADWAY,Chicago,IL,,41.933605,-87.64466299999998
P003090703,10750,S STATE ST,Chicago,IL,,41.880743,-87.62772699999998
P003941551,1650,W 47TH STREET,Chicago,IL,,41.809142,-87.63149699999998
P003227839,6550,S SANGAMON,Chicago,IL,,41.77512993839019,-87.64831050380192
P003884854,2450,S SPAULDING,Chicago,IL,,41.84673501294982,-87.7075424044447
P003995706,5050,S LOOMIS,Chicago,IL,,41.88070799999999,-87.66196499999998
P003823651,4750,S DAMON,Chicago,IL,,,
P003222227,9250,S CRANDON,Chicago,IL,,41.72738501877517,-87.56787819428861
P003764478,50,S PULASKI,Chicago,IL,,41.88002826900354,-87.72564714228336
P002085712,250,W 63RD ST,Chicago,IL,,41.780011,-87.62823099999999
P003879180,2850,W CERMAK,Chicago,IL,,41.852969,-87.62779299999998
P003329092,3550,S WOLCOTT,Chicago,IL,,41.829253758393136,-87.67281052183095
P003156796,10750,S WASHTENAW,Chicago,IL,,41.88062999999999,-87.69394299999998
P003260951,6350,S HONORE,Chicago,IL,,41.77820385059246,-87.67026461988766
P003298234,3650,W ROOSEVELT RD,Chicago,IL,,41.867359,-87.63570699999998
P003802243,10450,S WENTWORTH,Chicago,IL,,41.857775,-87.6319
P003135813,50,E 113TH PL,Chicago,IL,,41.68806260048406,-87.62227756014545
P003043972,2550,S WHIPPLE ST,Chicago,IL,,41.84506999999999,-87.70137599999998
P003256925,5450,W CHICAGO,Chicago,IL,,41.89664299999999,-87.63070499999998
P003330956,8750,S COMMERCIAL,Chicago,IL,,41.736238,-87.55140399999998
P001766676,4050,S ARCHER,Chicago,IL,,41.82002299999999,-87.69456599999998
P003207353,8750,S COMMERCIAL,Chicago,IL,,41.736238,-87.55140399999998
P003090821,1350,S ST LOUIS,Chicago,IL,,41.878928,-87.71354099999998
P003234098,1950,W DEVON,Chicago,IL,,41.99792599999999,-87.67864699999998
P002120071,2650,E 79TH ST,Chicago,IL,,41.75097999999999,-87.622996
P003132626,1250,W LAWRENCE,Chicago,IL,,41.96900099999999,-87.66128499999998
P003952278,4950,N BROADWAY,Chicago,IL,,41.97222342857142,-87.65975869387755
P003256921,50,S LOTUS,Chicago,IL,,41.879786695282505,-87.76180638471416
P003257062,150,S CICERO,Chicago,IL,,41.87859699999999,-87.74520799999998
P003117834,6950,S INDIANA,Chicago,IL,,41.67627199999999,-87.61776499999998
P003274561,650,S MICHIGAN,Chicago,IL,,41.87410883200106,-87.62415900903405
P003981810,7950,S DAMEN,Chicago,IL,,41.748602180569385,-87.67309120813243
P003872318,2850,W ROOSEVELT RD,Chicago,IL,,41.86649058141998,-87.69748722022163
P003911188,3050,W MADISON ST,Chicago,IL,,41.881917,-87.63676599999998
P002518680,1350,W TOUHY,Chicago,IL,,42.317834999999995,-87.863182
P003249233,7150,S PRAIRIE,Chicago,IL,,41.76451969696416,-87.61845167461409
P003217389,5150,S MAY ST,Chicago,IL,,41.761436,-87.65280599999998
P003161752,11250,E 120TH,Chicago,IL,,41.676223,-87.62106599999998
P003822926,1750,W 51ST ST,Chicago,IL,,41.801828,-87.63070799999998
P003808254,550,W 119TH ST,Chicago,IL,,41.677749,-87.646562
P004001760,50,W WACKER DR,Chicago,IL,,41.886878226707424,-87.63036076717964
P003324905,1250,S HALSTED,Chicago,IL,,41.88049199999999,-87.647322
P003090515,350,E 47TH ST,Chicago,IL,,41.809249,-87.625268
P003063619,450,E 71ST ST,Chicago,IL,,41.765543,-87.62329499999998
P003342427,5250,S HALSTED,Chicago,IL,,41.88049199999999,-87.647322
P003829201,3350,S WENTWORTH,Chicago,IL,,41.833180456049455,-87.63156483842094
P003878152,2250,S KEDZIE,Chicago,IL,,41.85064951566702,-87.70521994707957
P003851133,2950,E 87TH ST,Chicago,IL,,41.73736914285714,-87.55212771428572
P003122263,5450,N BROADWAY,Chicago,IL,,41.933605,-87.64466299999998
P003223284,3350,W 26 ST,Chicago,IL,,,
P003328952,1550,W 51 ST,Chicago,IL,,,
P003329027,3250,S ARCHER AVE,Chicago,IL,,41.834973778133545,-87.67017101460932
P001976680,5250,W CHICAGO,Chicago,IL,,41.89664299999999,-87.63070499999998
P003780476,7450,N CLARK,Chicago,IL,,42.017007757555255,-87.67538661027237
P003222632,3750,W 16TH ST,Chicago,IL,,41.85893,-87.71888
P002514906,2750,E 79TH,Chicago,IL,,41.75097999999999,-87.622996
P003304101,1150,W BRN MAWR,Chicago,IL,,,
P003220976,1550,W MARQUETTE RD,Chicago,IL,,41.77273,-87.62804399999999
P003232014,850,W 37 ST,Chicago,IL,,,
P003324904,150,W 18TH ST,Chicago,IL,,41.857761,-87.63376199999998
P003882626,850,N MICHIGAN,Chicago,IL,,41.88447099999999,-87.62445199999998
P003043847,2650,S CENTRAL PK,Chicago,IL,,,
P003218237,4550,S PAULINA ST,Chicago,IL,,41.81128980705665,-87.66748704934909
P003134890,7350,N ROGERS,Chicago,IL,,42.01433953054821,-87.6788334575194
P003015520,3750,S HALSTED ST,Chicago,IL,,41.88049199999999,-87.647322
P003298382,150,W KINZIE,Chicago,IL,,41.889212,-87.63105999999998
P003118361,50,E 69TH ST,Chicago,IL,,41.76917696329395,-87.62379799936184
P003082502,4850,W WEST END,Chicago,IL,,41.88311193410707,-87.74691378697067
P003220365,3050,S KEDVALE,Chicago,IL,,41.837960047082845,-87.7280255855569
P002120072,7950,S SOUTH SHORE,Chicago,IL,,41.75093860400197,-87.54803137755188
P003086376,7950,S WABASH ST,Chicago,IL,,,
P003005557,150,,Chicago,IL,,41.651808410459935,-87.61811559747788
P003208305,10550,S EWING,Chicago,IL,,41.70363032719972,-87.53528399999998
P003990301,150,W 18TH ST,Chicago,IL,,41.857761,-87.63376199999998
P003111971,550,W KINZIE ST,Chicago,IL,,41.88905799999999,-87.64139199999998
P003097401,2850,W ARTHINGTON,Chicago,IL,,41.8701371992385,-87.69754436675663
P003178566,4150,W JACKSON,Chicago,IL,,41.878045,-87.639561
P003941426,6850,S PAULINA,Chicago,IL,,41.88059799999999,-87.669279
P003274828,1350,S WABASH,Chicago,IL,,41.869723,-87.62588799999997
P003324903,150,W 18TH ST,Chicago,IL,,41.857761,-87.63376199999998
P002101021,3350,W BRYN MAWR,Chicago,IL,,41.98302199999999,-87.71252199999999
P003801692,11750,S HALSTED,Chicago,IL,,41.88049199999999,-87.647322
P003266995,5650,S ARTESIAN,Chicago,IL,,41.791083196538466,-87.68521254350098
P003372380,250,S STATE,Chicago,IL,,41.878176,-87.62767699999998
P003243202,50,E ROOSEVELT,Chicago,IL,,41.867487588235285,-87.62686647058823
P003218112,4850,S ASHLAND AVE,Chicago,IL,,41.880167,-87.66684099999998
P003329652,1550,W 51ST ST,Chicago,IL,,41.801828,-87.63070799999998
P003088876,7950,S INGLESIDE,Chicago,IL,,41.750393326530606,-87.60152148979591
P003257076,5550,W CHICAGO,Chicago,IL,,41.89664299999999,-87.63070499999998
P003047485,3650,W ROOSEVELT RD,Chicago,IL,,41.867359,-87.63570699999998
P003043958,2750,W CERMAK,Chicago,IL,,41.852969,-87.62779299999998
P003221006,2350,S PULASKI,Chicago,IL,,41.84877399999999,-87.72468499999998
P003372403,6750,S CAMPBELL,Chicago,IL,,41.771008377524616,-87.68585607764
P003245061,6050,W GIDDINGS,Chicago,IL,,41.966650586774826,-87.77842669999731
P003256868,850,N CICERO,Chicago,IL,,41.89674999999999,-87.74585199999999
P003139722,50,E 71ST ST,Chicago,IL,,41.765543,-87.62329499999998
P003256867,750,N CICERO,Chicago,IL,,41.880498,-87.745278
P003245122,550,N LEAMINGTON,Chicago,IL,,41.89033793591312,-87.75420925020356
P003124012,5450,N BROADWAY,Chicago,IL,,41.933605,-87.64466299999998
P003925906,50,S KEDZIE,Chicago,IL,,41.88064498255436,-87.70611199936172
P003249565,6450,S COTTAGE GROVE,Chicago,IL,,41.77766748058194,-87.60586860287782
P003087907,7850,S ASHLAND,Chicago,IL,,41.87163,-87.66643899999998
P003073191,50,E CHICAGO AVE,Chicago,IL,,41.896706,-87.626165
P003795761,1150,S CICERO,Chicago,IL,,41.878149,-87.745194
P003372378,2150,S EUCLID,Chicago,IL,,42.317834999999995,-87.863182
P003878177,2150,S KEDZIE,Chicago,IL,,41.88031699999999,-87.70609999999998
P003797314,1750,W 51ST,Chicago,IL,,41.801828,-87.63070799999998
P003133953,6150,N SHERIDAN,Chicago,IL,,41.99380299999999,-87.655501
P003043647,4450,W OGDEN,Chicago,IL,,41.847488337966716,-87.73495086815045
P003043636,1950,S KEDZIE,Chicago,IL,,41.88031699999999,-87.70609999999998
P003118335,2250,W 47TH ST,Chicago,IL,,41.80908699999999,-87.63337199999998
P003879194,2350,S KEDZIE,Chicago,IL,,41.849027050116256,-87.70517250414684
P003021269,6550,S VERNON,Chicago,IL,,41.77569943856132,-87.61431508536644
P003139705,6350,S COTTAGE GROVE,Chicago,IL,,41.7794787667052,-87.60590898864555
P003227315,3450,W BEACH ST,Chicago,IL,,,
P003239457,1250,N L S D,Chicago,IL,,,
P003814004,1150,W 74TH ST,Chicago,IL,,41.76001999999999,-87.62703199999999
P003132735,5250,N WESTERN,Chicago,IL,,41.97770799999999,-87.68922099999997
P003210928,1150,N KEYSTONE,Chicago,IL,,41.883346,-87.72717
P003165880,9150,S CHAPPEL,Chicago,IL,,41.72884788079871,-87.57430150312975
P003261028,1450,W 69TH ST,Chicago,IL,,41.768598263957855,-87.66063505224716
P003117847,350,E 71ST ST,Chicago,IL,,41.765543,-87.62329499999998
P003043637,1350,W HOMAN,Chicago,IL,,,
P003111974,550,W KINZIE ST,Chicago,IL,,41.88905799999999,-87.64139199999998
P003160054,8250,S EXCHANGE,Chicago,IL,,41.74527813121123,-87.552771593335
P003236251,10850,S HALSTED,Chicago,IL,,41.88049199999999,-87.647322
P003045021,10750,S MICHIGAN,Chicago,IL,,41.6989748211706,-87.62090364765699
P003136476,11550,S MICHIGAN,Chicago,IL,,41.86753,-87.62402099999998
P003223030,1250,S HARDING,Chicago,IL,,41.86502996164361,-87.72391859366644
P003243777,1650,W HOWARD,Chicago,IL,,42.019429,-87.69487900000001
P003828006,5150,S MARSHFIELD,Chicago,IL,,41.800375564680756,-87.66596949538359
P003166268,1550,W HOWARD,Chicago,IL,,42.01937199999999,-87.67074099999998
P003859126,150,W 113TH ST,Chicago,IL,,41.68892,-87.625714
P003872968,4050,W 26TH ST,Chicago,IL,,41.845415,-87.639953
P003206453,8250,S EXCHANGE,Chicago,IL,,41.74527813121123,-87.552771593335
P002159784,4050,N MILWAUKEE,Chicago,IL,,41.889034,-87.644334
P003872226,4150,W CERMAK RD,Chicago,IL,,41.85161056409185,-87.7284268741127
P003941555,5550,W BELMONT,Chicago,IL,,41.93858833061999,-87.76540488915957
P002319562,5250,N BROADWAY,Chicago,IL,,41.933605,-87.64466299999998
P003329735,1750,W 47TH ST,Chicago,IL,,41.809142,-87.63149699999998
P003209551,2350,N LARAMIE,Chicago,IL,,41.88563899999999,-87.75525999999998
P003222842,2450,S KEDZIE,Chicago,IL,,41.88031699999999,-87.70609999999998
P003243176,7150,S ASHLAND,Chicago,IL,,41.87163,-87.66643899999998
P003053691,1050,N LARRABEE,Chicago,IL,,41.90108187369522,-87.64311791240891
P003231290,5150,S ADA,Chicago,IL,,41.80047155102041,-87.65868077551019
P003248811,950,W ADAMS ST,Chicago,IL,,41.879438,-87.62935199999998
P003127311,350,W 119TH ST,Chicago,IL,,41.677749,-87.646562
P003169187,50,E 71ST,Chicago,IL,,41.765543,-87.62329499999998
P003167636,2950,W LARAMIE,Chicago,IL,,42.317834999999995,-87.863182
P003248810,650,S HALSTED ST,Chicago,IL,,41.88049199999999,-87.647322
P003196860,3650,W ROOSEVELT,Chicago,IL,,41.867359,-87.63570699999998
P003054011,1150,N ORLEANS,Chicago,IL,,41.90206599999999,-87.63738399999998
P003304104,1150,W BRYN MAWR,Chicago,IL,,41.98363599999999,-87.65931199999999
P003359718,5150,S ASHLAND,Chicago,IL,,41.880167,-87.66684099999998
P003795379,5650,W WASHINGTON,Chicago,IL,,41.883172,-87.64269999999998
P003136416,10750,S WENTWORTH,Chicago,IL,,41.857775,-87.6319
P003257059,5950,W DIVISION ST,Chicago,IL,,41.90392299999999,-87.629986
P003124018,5450,N SHERIDAN RD,Chicago,IL,,41.98136699999999,-87.65512499999998
P003797307,5350,W MADISON ST,Chicago,IL,,41.880320165756906,-87.75907649244871
P003058774,2050,N SPAULDING,Chicago,IL,,41.918699401715095,-87.71028380006723
P003221193,2450,S ALBANY,Chicago,IL,,41.84678932435502,-87.70265034534648
P003221068,4250,W CERMAK RD,Chicago,IL,,41.852792,-87.63853199999998
P003119097,850,N MICHIGAN,Chicago,IL,,41.88447099999999,-87.62445199999998
P001875344,1550,E 67TH ST,Chicago,IL,,41.772877,-87.62145699999998
P003225503,2050,N CALIFORNIA,Chicago,IL,,41.88473299999999,-87.69638799999998
P003168458,2050,E 71ST,Chicago,IL,,41.765543,-87.62329499999998
P003872232,1950,S AVERS,Chicago,IL,,41.85388670141892,-87.7210627000346
P003252256,2050,N SPAULDING,Chicago,IL,,41.918699401715095,-87.71028380006723
P003232021,6150,S KING DR,Chicago,IL,,41.78296054210699,-87.61569159209074
P003230189,1550,W 71ST STREET,Chicago,IL,,41.76543499999999,-87.62977099999998
P003139723,7050,S STONY ISLAND,Chicago,IL,,41.76698157142857,-87.58634957142857
P003222052,3550,W DOUGLAS,Chicago,IL,,41.862405,-87.714697
P003206803,8650,S COMMERCIAL,Chicago,IL,,41.738270417087726,-87.55144715256985
P003329654,5350,S JUSTINE,Chicago,IL,,41.796761421095795,-87.6634425037812
P003077557,11050,S MICHIGAN,Chicago,IL,,41.693284705127354,-87.62102190092025
P003063615,1550,E 67TH ST,Chicago,IL,,41.772877,-87.62145699999998
P003091783,12250,S HALSTED ST,Chicago,IL,,41.88049199999999,-87.647322
P003091759,10050,S DR MARTIN LUTH DR,Chicago,IL,,,
P003929976,550,W ROSCOE,Chicago,IL,,41.943333,-87.643737
P003920226,5350,S HARLEM,Chicago,IL,,42.317834999999995,-87.863182
P003232019,2850,S STEWART,Chicago,IL,,41.841813,-87.636465
P003086556,1250,W 79,Chicago,IL,,,
P003135806,11450,S STATE ST,Chicago,IL,,41.68647201299123,-87.62292211246094
P003165196,9950,S EWING,Chicago,IL,,41.71524397722983,-87.53527699999998
P003048482,1550,S CALIFORNIA,Chicago,IL,,41.86012199999999,-87.69571799999999
P003065343,3850,N CLARK,Chicago,IL,,41.95233999999999,-87.66063599999998
P003043243,1650,S PULASKI,Chicago,IL,,41.87976199999999,-87.72563699999998
P003221930,1250,S CALIFORNIA,Chicago,IL,,41.87971199999999,-87.69624899999998
P003256916,150,W 103RD ST,Chicago,IL,,41.70714699999999,-87.62473199999998
P002522698,50,E CHICAGO,Chicago,IL,,41.896706,-87.626165
P003138271,4850,S KING DR,Chicago,IL,,41.80755899999999,-87.61680199999998
P003232022,2550,S PRINCETON ST,Chicago,IL,,,
P003311356,2650,S ALBANY,Chicago,IL,,41.879688,-87.70293599999998
P003222843,150,,Chicago,IL,,41.651808410459935,-87.61811559747788
P003221199,2250,S ROCKWELL,Chicago,IL,,41.880662,-87.691068
P003764482,3750,W CHICAGO,Chicago,IL,,41.89664299999999,-87.63070499999998
P003257057,1250,W 79TH ST,Chicago,IL,,41.750911,-87.62703499999998
P003967030,1550,N MILWAUKEE,Chicago,IL,,41.90965125,-87.67630924999997
P003221572,2150,S KILDARE,Chicago,IL,,41.852324432432425,-87.73209254054052
P003329757,5150,S PAULINA ST,Chicago,IL,,41.800366407789596,-87.667187503416
P003075181,3250,W FRANKLIN,Chicago,IL,,41.89004934085408,-87.70822170911042
P003018027,3450,S HALSTED,Chicago,IL,,41.88049199999999,-87.647322
P003256873,5250,W CHICAGO,Chicago,IL,,41.89664299999999,-87.63070499999998
P003828004,4050,S ALBANY,Chicago,IL,,41.879688,-87.70293599999998
P003359733,5250,S WOOD ST,Chicago,IL,,41.880087,-87.671712
P003155684,250,S CICERO,Chicago,IL,,41.877693,-87.74517799999998
P003837327,5050,S WOOD,Chicago,IL,,41.80237402884015,-87.6696728043441
P003257061,4850,W CHICAGO,Chicago,IL,,41.89664299999999,-87.63070499999998
P003161980,350,N CENTRAL,Chicago,IL,,41.88153799999999,-87.71584999999997
P003342682,6750,S CHAMPLAIN,Chicago,IL,,41.77193157705755,-87.60937602317959
P003134978,6150,N SHERIDAN,Chicago,IL,,41.99380299999999,-87.655501
P003256914,5150,W MADISON ST,Chicago,IL,,41.88204199999999,-87.62780599999998
P003161983,1650,W 47TH ST,Chicago,IL,,41.809142,-87.63149699999998
P002326738,2350,E 79TH STREET,Chicago,IL,,41.751715721373614,-87.56724099241839
P003221923,2250,S SACRAMENTO,Chicago,IL,,41.87971900000001,-87.70116799999998
P003245060,6050,W GIDDINGS,Chicago,IL,,41.966650586774826,-87.77842669999731
P001975044,3750,W ROOSEVELT,Chicago,IL,,41.867341,-87.63719399999998
P002085725,150,W 18TH ST,Chicago,IL,,41.857761,-87.63376199999998
P003926236,1050,W WILSON,Chicago,IL,,41.96542399999999,-87.65550899999998
P003043641,1950,S TROY,Chicago,IL,,41.854784056845034,-87.70412409122355
P003043022,2350,S SAWYER,Chicago,IL,,41.84880284259846,-87.70638352951231
P003941678,5650,W LAWRENCE,Chicago,IL,,41.96776176756981,-87.76907085063921
P003205903,1550,E 75TH ST,Chicago,IL,,41.75875899999999,-87.586792
P003256901,5050,W DIVISION,Chicago,IL,,41.90228458467098,-87.75245958520267
P003043014,2250,S DRAKE,Chicago,IL,,41.85044680150979,-87.71374159704685
P003161755,2450,E 79TH,Chicago,IL,,41.751063,-87.61815399999998
P003941377,7950,S EMERALD,Chicago,IL,,41.780664,-87.64367799999998
P003995710,6250,S CENTRAL PK,Chicago,IL,,,
P003872536,1850,S KEDZIE,Chicago,IL,,41.88031699999999,-87.70609999999998
P002510922,2650,S HALSTED ST,Chicago,IL,,41.845124971453465,-87.64644432998202
P003221940,3650,W CERMAK,Chicago,IL,,41.851641,-87.71684299999998
P003007838,5950,S SANGAMON,Chicago,IL,,41.88042999999999,-87.650823
P003805431,9150,S COMMERCIL,Chicago,IL,,,
P003812015,7150,S PRINCETON,Chicago,IL,,41.76446588982894,-87.63218954879697
P003805432,9150,S COMMERCIL,Chicago,IL,,,
P003764490,750,N TRUMBULL,Chicago,IL,,41.894598197468326,-87.71262855948903
P003814803,6950,S PEORIA,Chicago,IL,,41.76767266286802,-87.64690974262732
P003878159,2950,W 25TH,Chicago,IL,,41.8464127893364,-87.69853936153885
P003117830,2050,E 71 STREET,Chicago,IL,,,
P003118366,5450,S HALSTED,Chicago,IL,,41.88049199999999,-87.647322
P003920578,5550,W LE MOYNE,Chicago,IL,,41.90757673337141,-87.76493453040148
P003952283,1150,W BRYN MAWR,Chicago,IL,,41.98363599999999,-87.65931199999999
P003845510,150,N STATE ST,Chicago,IL,,41.88321799999999,-87.62787
P002085721,6350,S STATE ST,Chicago,IL,,41.874552,-87.62754499999998
P002327059,2850,S ST LOUIS,Chicago,IL,,41.87724099999999,-87.713487
P003298592,3650,W 16TH,Chicago,IL,,41.858956699468095,-87.71661541045958
P003871607,3150,W 26TH ST,Chicago,IL,,41.844523,-87.70442599999998
P003767151,150,N PULASKI,Chicago,IL,,41.881937,-87.72570699999999
P003878162,3350,W 26TH STREET,Chicago,IL,,41.844458,-87.70929599999998
P003783510,550,N KEDZIE,Chicago,IL,,41.88230099999999,-87.70615999999998
P003941154,4450,N CENTRAL,Chicago,IL,,41.88929,-87.76518099999998
P003245069,5950,W WAVELAND,Chicago,IL,,41.947605205180594,-87.77537987181174
P003995280,5250,S BISHOP,Chicago,IL,,41.86932,-87.66287699999998
P003879395,3150,W CERMAK,Chicago,IL,,41.852854,-87.63677799999998
P003117854,4050,S LAKE PARK,Chicago,IL,,41.821361,-87.601624
P003798476,5450,W MADISON,Chicago,IL,,41.88204199999999,-87.62780599999998
P003259554,6850,S ASHLAND,Chicago,IL,,41.874251,-87.666686
P003764489,1050,N CENTRAL PARK,Chicago,IL,,41.88153799999999,-87.71584999999997
P003117833,2150,E 71ST ST,Chicago,IL,,41.765543,-87.62329499999998
P003798477,5250,W RACE,Chicago,IL,,41.89003723587373,-87.7572209982563
P002323746,950,S PULASKI,Chicago,IL,,41.87976199999999,-87.72563699999998
P003879396,3050,W CERMAK RD,Chicago,IL,,41.852854,-87.63677799999998
P003879198,3150,W CERMAK,Chicago,IL,,41.852854,-87.63677799999998
P003878161,2850,W CERMAK,Chicago,IL,,41.852969,-87.62779299999998
P003878158,3150,W CERMAK,Chicago,IL,,41.852854,-87.63677799999998
P003139724,2050,E 71ST ST,Chicago,IL,,41.765543,-87.62329499999998
P003082996,2050,N CICERO,Chicago,IL,,41.91797357791543,-87.74614986984426
P003274810,350,W KINZIE ST,Chicago,IL,,41.88776899999999,-87.72586799999998
P003126654,2350,E 75TH ST,Chicago,IL,,41.758262,-87.623148
P003047167,3150,W 25TH ST,Chicago,IL,,41.846384,-87.63569999999999
P003805682,7750,S COTTAGE GROVE,Chicago,IL,,41.75400138566432,-87.60527231295309
P003221183,2550,S ALBANY,Chicago,IL,,41.879688,-87.70293599999998
P003879392,3250,W 26TH STREET,Chicago,IL,,41.845469,-87.636031
P003878160,2850,W CERMAK,Chicago,IL,,41.852969,-87.62779299999998
P003252404,2550,N WESTERN,Chicago,IL,,41.88621899999999,-87.68656999999997
P003872227,2250,S SPRINGFIELD,Chicago,IL,,41.851111,-87.72226499999998
P002085717,50,E ROOSEVELT RD,Chicago,IL,,41.867487588235285,-87.62686647058823
P003274559,950,N MICHIGAN,Chicago,IL,,41.88447099999999,-87.62445199999998
P003222828,3250,W 26TH STREET,Chicago,IL,,41.845469,-87.636031
P003767152,4250,W MADISON,Chicago,IL,,41.88204199999999,-87.62780599999998
P003972601,8050,S EXCHANGE ST,Chicago,IL,,,
P003112116,7350,S YATES,Chicago,IL,,41.761692479550064,-87.5664301194028
P003132627,1250,W LAWRENCE,Chicago,IL,,41.96900099999999,-87.66128499999998
P003878681,1850,S LAWNDALE,Chicago,IL,,41.856074585308704,-87.71759540249684
P003802591,8850,S LOOMIS,Chicago,IL,,41.87028699999999,-87.66167
P003802592,8850,S LOOMIS,Chicago,IL,,41.87028699999999,-87.66167
P003805436,9550,S LOOMIS,Chicago,IL,,41.86933899999999,-87.661641
P003802593,8850,S LOOMIS,Chicago,IL,,41.87028699999999,-87.66167
P003955013,1450,W 48TH ST,Chicago,IL,,41.80682199999999,-87.661878
P003981551,10450,S WABASH,Chicago,IL,,41.70440032653061,-87.62225644897958
P003359916,3550,S IRON ST,Chicago,IL,,41.83054899999999,-87.65928399999999
P003805435,9550,S LOOMIS,Chicago,IL,,41.86933899999999,-87.661641
P003808263,11750,S PERRY,Chicago,IL,,41.68085684210526,-87.6252036842105
P003805437,9550,S LOOMIS,Chicago,IL,,41.86933899999999,-87.661641
P003285480,1450,W JARVIS,Chicago,IL,,42.0160590413465,-87.66758847786316
P003995929,7450,S KINGSTON,Chicago,IL,,41.759751375543644,-87.56315694445715
P003919081,5350,S DAMEN ST,Chicago,IL,,,
P003941554,3850,W 67TH STREET,Chicago,IL,,,
P003805439,2350,E 8700 ST,Chicago,IL,,,
P003805442,2450,E 87,Chicago,IL,,,
P003251457,2750,N ARTESIAN,Chicago,IL,,41.93126704081632,-87.68909565306122
P003801789,11750,S STEWART,Chicago,IL,,41.680640387755105,-87.63235024489796
P003091757,250,W 103RD ST,Chicago,IL,,41.707089,-87.629513
P003872537,3550,W 23RD ST,Chicago,IL,,41.85090900000001,-87.636624
P003995702,1350,S CENTRAL PARK,Chicago,IL,,41.86341099999999,-87.71533499999998
P003764493,250,N PULASKI,Chicago,IL,,41.88480768801469,-87.72578630415323
P003811951,5550,S PAULINA,Chicago,IL,,41.79272932843137,-87.66698319800581
P003851126,8450,S BUFFALO,Chicago,IL,,41.742003479419054,-87.54421063594783
P003274570,650,W CHICAGO,Chicago,IL,,41.89664299999999,-87.63070499999998
P003222051,2450,S KEDZIE,Chicago,IL,,41.88031699999999,-87.70609999999998
P003257129,50,N CENTRAL,Chicago,IL,,41.88120045452257,-87.71590474039965
P003952284,1150,W BRYN MAWR,Chicago,IL,,41.98363599999999,-87.65931199999999
P002503207,6350,S STATE,Chicago,IL,,41.874552,-87.62754499999998
P003878164,3150,W 31ST STREET,Chicago,IL,,41.83724702841157,-87.7039701674537
P003995308,6450,S SACRAMENTO,Chicago,IL,,41.87971900000001,-87.70116799999998
P003863351,1050,W 103RD ST,Chicago,IL,,41.70714699999999,-87.62473199999998
P003995584,2550,S HOMAN,Chicago,IL,,41.84533710569855,-87.70992995625048
P003073542,1350,N SEDGWICK ST,Chicago,IL,,41.907102702929684,-87.63846749182017
P003872039,3750,W ROOSEVELT,Chicago,IL,,41.867341,-87.63719399999998
P003805441,8750,S PAXTON,Chicago,IL,,41.736084298565416,-87.57084465408937
P003329098,3250,S MORGAN ST,Chicago,IL,,41.88123499999999,-87.65201599999997
P003165198,13350,S BALTIMORE,Chicago,IL,,41.65274738219107,-87.54715258272972
P003812640,5550,S ASHLAND,Chicago,IL,,41.880167,-87.66684099999998
P003298619,1250,N CLARK,Chicago,IL,,41.88447699999999,-87.63093499999998
P003764327,3750,W CHICAGO,Chicago,IL,,41.89664299999999,-87.63070499999998
P003878166,3050,W CERMAK,Chicago,IL,,41.852854,-87.63677799999998
P003136413,50,E 120TH ST,Chicago,IL,,41.6762165,-87.62151999999998
P003257077,4850,W JACKSON,Chicago,IL,,41.878045,-87.639561
P003815601,5650,S SEELEY,Chicago,IL,,41.880451,-87.67784399999998
P003871152,5950,W DIVISION,Chicago,IL,,41.90392299999999,-87.629986
P003812657,1150,W 63RD ST,Chicago,IL,,41.77962454032016,-87.65349731062962
P003805438,8750,S PAXTON,Chicago,IL,,41.736084298565416,-87.57084465408937
P003805440,8750,S PAXTON,Chicago,IL,,41.736084298565416,-87.57084465408937
P001897338,5050,N SHERIDAN,Chicago,IL,,41.97454300649064,-87.65496126920027
P003232025,2950,S HALSTED ST,Chicago,IL,,41.88049199999999,-87.647322
P003257087,1850,W 63RD ST,Chicago,IL,,41.780011,-87.62823099999999
P003087083,250,W 79TH ST,Chicago,IL,,41.750854269848844,-87.63009091045879
P003244743,3250,N LAMON,Chicago,IL,,41.88677299999999,-87.74795799999998
P003941291,5550,W LAWRENCE,Chicago,IL,,41.967798,-87.76625699999998
P003330202,11950,S MICHIGAN,Chicago,IL,,41.6768771894216,-87.62047734284184
P003077181,850,N MICHIGAN,Chicago,IL,,41.88447099999999,-87.62445199999998
P003995709,5350,S ABERDEEN,Chicago,IL,,41.875112,-87.654442
P004251571,2450,S HOMAN,Chicago,IL,,41.84715046885381,-87.70998840392905
P003054765,150,E CHICAGO,Chicago,IL,,41.896695,-87.62684999999998
P003178159,5650,W MONTROSE,Chicago,IL,,41.96046215316061,-87.76877498864262
P003140720,6250,S EVANS,Chicago,IL,,41.78151511278589,-87.60721270054401
P003245073,7050,S DAMEN,Chicago,IL,,41.765030343771244,-87.6735380739362
P003804116,7950,S COLFAX,Chicago,IL,,41.75016983069619,-87.56135712979052
P003161753,350,S STATE,Chicago,IL,,41.880743,-87.62772699999998
P003995577,6150,S M L K DR,Chicago,IL,,,
P003870429,1450,S HAMLIN ST,Chicago,IL,,,
P003802579,8450,S COLEFAX,Chicago,IL,,,
P003207729,8250,S BURNHAM,Chicago,IL,,41.74503299999999,-87.55642299999998
P003133991,7650,N EAST LAKE TR,Chicago,IL,,,
P003136422,11750,S SANGAMON,Chicago,IL,,41.88042999999999,-87.650823
P003329728,2650,W 45TH ST,Chicago,IL,,41.812516,-87.63346199999998
P003304105,1050,W BRYN MAWR,Chicago,IL,,41.98367330386539,-87.65711399223068
P003055164,650,W 74TH ST,Chicago,IL,,41.75979199999999,-87.64123199999999
P003050057,8150,S COTTAGE GROVE,Chicago,IL,,41.746693850394074,-87.60510850410911
P003257075,1150,W 59TH ST,Chicago,IL,,41.78689524391475,-87.65382914554134
P003869927,4050,W 21ST ST,Chicago,IL,,41.853663,-87.726764
P003199529,6750,S BLACKSTONE,Chicago,IL,,41.77194399999999,-87.58872199999998
P003996311,6650,S ROCKWELL,Chicago,IL,,41.772356,-87.68834499999998
P003134977,6150,N SHERIDAN,Chicago,IL,,41.99380299999999,-87.655501
P003245034,3850,N HARLEM,Chicago,IL,,41.94983068806489,-87.80716555293489
P003175834,2450,E 79TH ST,Chicago,IL,,41.751750324746105,-87.56468844632465
P003243787,7250,N SHERIDAN,Chicago,IL,,42.013121356646366,-87.6636103032902
P003133997,1150,W PRATT,Chicago,IL,,42.00554999999999,-87.66020499999998
P003256856,650,E 67TH ST,Chicago,IL,,41.77308387521843,-87.60905911196663
P003953229,5650,S STATE,Chicago,IL,,41.791593808255634,-87.62562140020188
P003122259,1450,W FOSTER,Chicago,IL,,41.97621946571249,-87.66661905582887
P003066613,5850,W DICKENS,Chicago,IL,,41.92007199999999,-87.643728
P003249728,2550,S CENTRAL PARK,Chicago,IL,,41.84528427945168,-87.71481295388003
P003911185,6550,N SHERIDAN RD,Chicago,IL,,42.00131664195407,-87.66073613964241
P003007533,6450,S ASHLAND,Chicago,IL,,41.874251,-87.666686
P003249552,6350,S CAMPBELL,Chicago,IL,,41.77819232114134,-87.68605909876982
P003223282,2650,S SPAULDING,Chicago,IL,,41.880287,-87.70848399999998
P003342681,150,E 67TH STREET,Chicago,IL,,41.772877,-87.62145699999998
P003828005,5150,S MARSHFIELD,Chicago,IL,,41.800375564680756,-87.66596949538359
P003879186,2650,S TROY,Chicago,IL,,41.84337913741397,-87.70377956269444
P003221200,2250,S ROCKWELL,Chicago,IL,,41.880662,-87.691068
P003066612,2650,N SAYRE,Chicago,IL,,41.92820098569185,-87.80089121387795
P003872233,1850,S KEDZIE,Chicago,IL,,41.88031699999999,-87.70609999999998
P003303802,6750,N ASHLAND,Chicago,IL,,41.88193199999999,-87.66689199999998
P003260126,6550,S MORGAN,Chicago,IL,,41.8817,-87.65203099999998
P003220363,2550,S TROY,Chicago,IL,,41.845207430572856,-87.70382790449908
P003179808,2950,W HARRISON,Chicago,IL,,41.87445999999999,-87.63508499999998
P003183414,50,E 71ST ST,Chicago,IL,,41.765543,-87.62329499999998
P003257130,650,S LOCKWOOD,Chicago,IL,,41.872419,-87.75739599999999
P003921926,6350,S RICHMOND,Chicago,IL,,41.77789874046661,-87.69701792896521
P003802432,250,W 119TH ST,Chicago,IL,,41.677749,-87.646562
P003132631,2450,W BALMORAL,Chicago,IL,,41.97951499999999,-87.69173699999997
P003070764,50,W CHICAGO,Chicago,IL,,41.89664299999999,-87.63070499999998
P003043016,2150,S TRUMBULL,Chicago,IL,,41.85275471337878,-87.71117632583929
P003139720,7150,S STATE ST,Chicago,IL,,41.76523499999999,-87.62490099999998
P003963958,1250,N SPAULDING,Chicago,IL,,41.90441463923406,-87.70928410085291
P003117835,7150,S STATE ST,Chicago,IL,,41.76523499999999,-87.62490099999998
P003879181,1850,S KEDZIE,Chicago,IL,,41.88031699999999,-87.70609999999998
P002327155,2750,S KOMENSKY AVE,Chicago,IL,,41.841454216545145,-87.72568953670883
P003112113,7250,S JEFFERY,Chicago,IL,,41.76316301704953,-87.57623512741304
P003248804,950,W ADAMS ST,Chicago,IL,,41.879438,-87.62935199999998
P003781431,750,N CENTRAL PARK,Chicago,IL,,41.88153799999999,-87.71584999999997
P003259576,6350,S ELIZABETH ST,Chicago,IL,,41.77959299999999,-87.65574099999998
P003870426,1450,S CHRISTIANA ST,Chicago,IL,,,
P003199128,2450,W GRAND,Chicago,IL,,41.891646,-87.62965199999998
P003125408,7050,S INDIANA,Chicago,IL,,41.67627199999999,-87.61776499999998
P003373452,11550,S HALSTED,Chicago,IL,,41.88049199999999,-87.647322
P003766278,4050,W THOMAS ST,Chicago,IL,,41.90081975006103,-87.72785949626518
P003106109,550,W ROOSEVELT RD,Chicago,IL,,41.86724099999999,-87.64072199999998
P003133121,1750,W HOWARD,Chicago,IL,,42.019429,-87.69487900000001
P003797102,950,N LONG,Chicago,IL,,41.88230699999999,-87.76018999999998
P003372379,7150,S EXCHANGE,Chicago,IL,,41.765298,-87.56562599999998
P003248813,550,W KINZIE ST,Chicago,IL,,41.88905799999999,-87.64139199999998
P003234096,7050,N SHERIDAN,Chicago,IL,,42.010401,-87.66248499999998
P003133998,1150,W PRATT,Chicago,IL,,42.00554999999999,-87.66020499999998
P003164488,7850,S BURNHAM,Chicago,IL,,41.75229664421468,-87.5569864322953
P003249231,250,E 75TH ST,Chicago,IL,,41.758262,-87.623148
P003097073,2850,E 79TH,Chicago,IL,,41.75097999999999,-87.622996
P003133404,6150,N SHERIDAN,Chicago,IL,,41.99380299999999,-87.655501
P003897027,1950,S LOOMIS,Chicago,IL,,41.88070799999999,-87.66196499999998
P003870026,1550,S SAWYER,Chicago,IL,,41.8599681733652,-87.70670450063662
P003223278,3650,W 28TH ST,Chicago,IL,,41.840697288815434,-87.7162724056191
P003256918,150,S LARAMIE,Chicago,IL,,41.87914998040424,-87.75502085449426
P003257051,350,N LARAMIE,Chicago,IL,,41.88709596892358,-87.75532143545817
P003230579,5950,S ELIZABETH,Chicago,IL,,41.78571758408992,-87.65587162435354
P003888038,50,E CHICAGO,Chicago,IL,,41.896706,-87.626165
P003967647,1550,N WICKER PARK,Chicago,IL,,41.908569265924456,-87.6768049132897
P003248458,6350,S ASHLAND,Chicago,IL,,41.874251,-87.666686
P003249555,8850,S HOUSTON,Chicago,IL,,41.7346403585085,-87.5499790534911
P003183097,250,E 71ST ST,Chicago,IL,,41.765543,-87.62329499999998
P003115875,7150,S ASHLAND,Chicago,IL,,41.87163,-87.66643899999998
P003274483,150,N MICHIGAN,Chicago,IL,,41.88447099999999,-87.62445199999998
P003226064,3550,W ARMITAGE,Chicago,IL,,41.917311272221816,-87.7143531359271
P003232020,2950,E 88TH ST,Chicago,IL,,41.73555,-87.55207899999998
P003124017,1150,W BRYN MAWR,Chicago,IL,,41.98363599999999,-87.65931199999999
P003802654,50,E 111TH ST,Chicago,IL,,41.69259721353802,-87.62194005233789
P003053530,150,W ELM,Chicago,IL,,41.90316299999999,-87.62941999999998
P003156565,9850,S LOOMIS,Chicago,IL,,41.86933899999999,-87.661641
P003177567,3850,N CENTRAL,Chicago,IL,,41.95043199999999,-87.76691099999998
P003996236,6650,,Chicago,IL,,41.77277699999999,-87.62504599999998
P003139721,7150,S STATE ST,Chicago,IL,,41.76523499999999,-87.62490099999998
P003112166,7350,S BLACKSTONE,Chicago,IL,,41.761193382079675,-87.58843134798741
P003828008,4850,S PAULINA,Chicago,IL,,41.805629676225784,-87.66732126342663
P003298590,4250,W CULLERTON,Chicago,IL,,41.854323170418546,-87.73095691246351
P003994302,7150,S EXCHANGE,Chicago,IL,,41.765298,-87.56562599999998
P003178080,3550,N OAK PARK,Chicago,IL,,41.94434960898265,-87.79594257082856
P003286632,1750,N SPRINGFIELD,Chicago,IL,,41.912804148439385,-87.72397716625959
P003879185,2650,S TROY,Chicago,IL,,41.84337913741397,-87.70377956269444
P003222303,7950,S COTTAGE GROVE,Chicago,IL,,41.7503710104564,-87.60521326795302
P003012343,2250,N STOCKTON,Chicago,IL,,41.92293911168205,-87.6357527495772
P003082558,5550,W HARRISON ST,Chicago,IL,,41.87437099999999,-87.642424
P003206457,8950,S EXCHANGE,Chicago,IL,,41.732782400184576,-87.55270405370318
P003879195,2450,S KEDZIE,Chicago,IL,,41.88031699999999,-87.70609999999998
P003801781,8150,S MANISTEE,Chicago,IL,,41.74671000787945,-87.55765656611206
P003206301,11250,S AVENUE F,Chicago,IL,,,
P003043846,3150,W 25 ST,Chicago,IL,,,
P003199002,2850,W DIVISION,Chicago,IL,,41.9029084952744,-87.69874299483804
P001897341,2350,W 67TH ST,Chicago,IL,,,
P003843486,1450,S WABASH,Chicago,IL,,41.869723,-87.62588799999997
P003117843,6750,S BLACKSTONE,Chicago,IL,,41.77194399999999,-87.58872199999998
P003783276,2450,W 71ST,Chicago,IL,,41.765397,-87.63221399999998
P003257155,450,N LARAMIE,Chicago,IL,,41.882364,-87.75513999999998
P003330656,6950,S HALSTED,Chicago,IL,,41.88049199999999,-87.647322
P003261027,850,W 71ST ST,Chicago,IL,,41.76517811512152,-87.64598687807499
P003164490,8950,S COMMERCIAL,Chicago,IL,,41.73279735983221,-87.55132050391519
P003125407,6250,S ST LAWRENCE,Chicago,IL,,41.78078299999999,-87.61081199999998
P003221009,4250,W CERMAK,Chicago,IL,,41.852792,-87.63853199999998
P003227688,2650,N MILWAUKEE,Chicago,IL,,41.92977543203837,-87.70856438907173
P003164199,8750,S COMMERCIAL,Chicago,IL,,41.736238,-87.55140399999998
P002085719,1950,S STATE ST,Chicago,IL,,41.880743,-87.62772699999998
P003245071,7250,S ASHLAND,Chicago,IL,,41.87163,-87.66643899999998
P003929954,1450,W OAKDALE,Chicago,IL,,41.93518861836159,-87.66489325752353
P003952277,1050,W BRYN MAWR,Chicago,IL,,41.98367330386539,-87.65711399223068
P004001579,150,S WELLS,Chicago,IL,,41.88002199999999,-87.63377799999998
P003043015,3450,W 23RD ST,Chicago,IL,,41.849863794008186,-87.7119095654998
P003223198,150,W 115TH ST,Chicago,IL,,41.68527172401172,-87.62692977997273
P003139716,2050,E 71 ST,Chicago,IL,,,
P003090507,13050,S CHAMPLAIN,Chicago,IL,,,
P003150577,1050,N LEAMINGTON ST,Chicago,IL,,,
P003372383,5150,S RACINE,Chicago,IL,,41.88157799999999,-87.65713999999998
P003018818,1750,W 47TH ST,Chicago,IL,,41.809142,-87.63149699999998
P003869931,1450,S HAMLIN,Chicago,IL,,41.86139118137661,-87.72015346193781
P003112162,7150,S STATE ST,Chicago,IL,,41.76523499999999,-87.62490099999998
P003797323,1850,W 43RD ST,Chicago,IL,,41.81640099999999,-87.63236299999998
P003331929,8150,S EXCHANGE,Chicago,IL,,41.74710573861656,-87.55280579885266
P003872029,5250,W CHICAGO,Chicago,IL,,41.89664299999999,-87.63070499999998
P003329755,3350,S MORGAN,Chicago,IL,,41.83279305209873,-87.65101700102154
P003047170,3250,W 26TH,Chicago,IL,,41.845469,-87.636031
P002512055,3850,S ROCKWELL,Chicago,IL,,41.82367099999999,-87.68973699999998
P003223184,2250,S KIRKLAND,Chicago,IL,,41.850477820224725,-87.73338352808986
P003802254,10150,S EMERALD,Chicago,IL,,41.759762,-87.64305299999998
P003286326,850,N CICERO,Chicago,IL,,41.89674999999999,-87.74585199999999
P003888027,50,E CHICAGO,Chicago,IL,,41.896706,-87.626165
P003311351,2650,S SPAULDING,Chicago,IL,,41.880287,-87.70848399999998
P003199676,750,E 61ST ST,Chicago,IL,,41.78404687636144,-87.60660992220285
P003007532,6950,S PEORIA,Chicago,IL,,41.76767266286802,-87.64690974262732
P003995306,950,W GARFIELD BLVD,Chicago,IL,,41.79389182300435,-87.64820084988402
P003103785,2250,S CLARK,Chicago,IL,,41.880696,-87.630853
P003097072,7950,S EXCHANGE,Chicago,IL,,41.75098446938775,-87.5528816530612
P003952281,1150,W BRYN MAWR,Chicago,IL,,41.98363599999999,-87.65931199999999
P003157248,9850,S PARNELL,Chicago,IL,,41.71551373329053,-87.63699391737205
P003178572,3950,W WILCOX,Chicago,IL,,41.87888875510712,-87.72409967308236
P003257056,350,N LARAMIE,Chicago,IL,,41.88709596892358,-87.75532143545817
P003162777,3650,W 16TH ST,Chicago,IL,,41.858956699468095,-87.71661541045958
P003134301,6050,N BROADWAY,Chicago,IL,,41.933605,-87.64466299999998
P003018816,1750,W 45TH ST,Chicago,IL,,41.812204634497405,-87.66902215596699
P003199539,2150,E 67TH ST,Chicago,IL,,41.773487,-87.57282699999998
P003359735,950,W 50TH PL,Chicago,IL,,41.802448369224614,-87.64872252536716
P002503210,7150,S STATE,Chicago,IL,,41.76523499999999,-87.62490099999998
P003088257,150,W HURON,Chicago,IL,,41.89482499999999,-87.63177699999999
P003304302,5450,N SHERIDAN RD,Chicago,IL,,41.98136699999999,-87.65512499999998
P003872034,3850,W ROOSEVELT RD,Chicago,IL,,41.867341,-87.63719399999998
P003087078,1650,W 79TH ST,Chicago,IL,,41.75033342375347,-87.66500775074657
P003091017,9550,S UNIVERSITY ST,Chicago,IL,,,
P003795759,750,N LOCKWOOD,Chicago,IL,,41.881863,-87.75756299999998
P003061144,1650,E 53RD ST,Chicago,IL,,41.79819899999999,-87.62092599999998
P003160055,2650,E 79TH ST,Chicago,IL,,41.75097999999999,-87.622996
P003764477,3450,W AUGUSTA,Chicago,IL,,41.89914,-87.71277499999998
P002085723,1650,S STATE ST,Chicago,IL,,41.880743,-87.62772699999998
P003911195,5550,W CHICAGO,Chicago,IL,,41.89664299999999,-87.63070499999998
P003994854,5050,S BISHOP,Chicago,IL,,41.86932,-87.66287699999998
P003780484,650,N LOTUS,Chicago,IL,,41.892264815222546,-87.76202857491909
P003133999,7650,N ASHLAND,Chicago,IL,,41.88193199999999,-87.66689199999998
P003017861,5450,S LAFLIN,Chicago,IL,,41.794520242287405,-87.66216946912131
P003097553,950,S PULASKI,Chicago,IL,,41.87976199999999,-87.72563699999998
P003043177,1550,S KEDVALE,Chicago,IL,,41.859922081728676,-87.72865256628614
P003181633,6350,S COTTAGE GROV,Chicago,IL,,,
P003041497,6650,S RACINE,Chicago,IL,,41.71069099999999,-87.652625
P002503209,6250,S MARTIN LUTHER DR,Chicago,IL,,,
P003043971,2650,S SPAULDING ST,Chicago,IL,,,
P003869928,4050,W 21ST ST,Chicago,IL,,41.853663,-87.726764
P003873053,3050,W 16TH ST,Chicago,IL,,41.859770000000005,-87.656316
P003082559,150,N LARAMIE,Chicago,IL,,41.8835292208766,-87.75518002101934
P003341508,350,S STATE ST,Chicago,IL,,41.880743,-87.62772699999998
P003245074,7050,S DAMEN,Chicago,IL,,41.765030343771244,-87.6735380739362
P003249726,650,E 62ND ST,Chicago,IL,,41.7821811377191,-87.60883373685404
P003808253,11950,S STEWART,Chicago,IL,,41.676792128105276,-87.63223941647165
P003359913,2950,S EMERALD,Chicago,IL,,41.759762,-87.64305299999998
P003047166,2850,S MILLARD,Chicago,IL,,41.84023988529439,-87.71589929377303
P003322351,50,S PULASKI,Chicago,IL,,41.88002826900354,-87.72564714228336
P003044939,10750,S MICHIGAN,Chicago,IL,,41.6989748211706,-87.62090364765699
P003918427,2550,W 64TH STREET,Chicago,IL,,41.77737599999999,-87.68786199999998
P003048484,4350,W ROOSEVELT RD,Chicago,IL,,41.867254,-87.639218
P003795377,5250,W OHIO,Chicago,IL,,41.89118599999999,-87.756686
P003795774,1650,W 69TH ST,Chicago,IL,,41.7691,-87.628264
P003872026,1650,N RIDGEWAY,Chicago,IL,,,
P003795380,4950,W WASHINGTON,Chicago,IL,,41.881768968711185,-87.7490230176892
P003118353,7050,S DORCHESTER,Chicago,IL,,41.76510799999999,-87.590969
P003942353,50,N CENTRAL,Chicago,IL,,41.88120045452257,-87.71590474039965
P003167413,6450,N MILWAUKEE,Chicago,IL,,42.317834999999995,-87.863182
P001911184,1950,W HOOD,Chicago,IL,,41.99309999999999,-87.67916999999998
P003256911,650,N CICERO,Chicago,IL,,41.89251256534664,-87.74572144646814
P003007521,6150,S RACINE,Chicago,IL,,41.78231744897959,-87.65457155102041
P003222759,1650,S CALIFORNIA,Chicago,IL,,41.87971199999999,-87.69624899999998
P003222827,3150,W CERMAK,Chicago,IL,,41.852854,-87.63677799999998
P003164485,7550,S PHILLIPS,Chicago,IL,,41.757854618808175,-87.5651403887725
P003156567,1950,W 111TH ST,Chicago,IL,,41.69252699999999,-87.62790699999998
P003878869,3450,W 26TH ST,Chicago,IL,,41.84443104676221,-87.71131040919529
P003231332,4850,S BISHOP,Chicago,IL,,41.86932,-87.66287699999998
P003360151,4650,S WOOD,Chicago,IL,,41.880087,-87.671712
P002085718,50,E ROOSEVELT RD,Chicago,IL,,41.867487588235285,-87.62686647058823
P003235258,3450,W OHIO,Chicago,IL,,41.89182,-87.71376599999998
P003257053,5750,W MADISON ST,Chicago,IL,,41.88204199999999,-87.62780599999998
P003795976,50,E 119TH ST,Chicago,IL,,41.67804149999999,-87.62157499999998
P003080131,850,W BELMONT,Chicago,IL,,42.317834999999995,-87.863182
P003963955,1550,N KEDZIE,Chicago,IL,,41.88230099999999,-87.70615999999998
P003941286,4850,W BYRON,Chicago,IL,,41.95155368326288,-87.74888386394251
P003807527,11850,S PRINCETON,Chicago,IL,,41.67884126530612,-87.6298917142857
P003149929,50,N LAMON,Chicago,IL,,41.880801497466386,-87.74773697283605
P002031761,7050,N CLARK,Chicago,IL,,41.89563499999999,-87.63122299999998
P003872316,1350,S PULASKI RD,Chicago,IL,,41.878424,-87.72559199999998
P003088877,750,W 79TH ST,Chicago,IL,,41.750654268133204,-87.64318140530472
P003990302,150,W 18TH ST,Chicago,IL,,41.857761,-87.63376199999998
P003257063,350,N LARAMIE,Chicago,IL,,41.88709596892358,-87.75532143545817
P003801790,5750,S BISHOP,Chicago,IL,,41.86932,-87.66287699999998
P003897029,1250,W ADAMS,Chicago,IL,,41.8790398161808,-87.65828435514787
P003206989,2450,E 79TH ST,Chicago,IL,,41.751750324746105,-87.56468844632465
P003090517,8350,S COMMERCIAL,Chicago,IL,,41.742246221722326,-87.5515300395612
P003328951,1250,W 51,Chicago,IL,,,
P003261860,5750,S ASHLAND,Chicago,IL,,41.880167,-87.66684099999998
P003007771,5850,S ASHLAND,Chicago,IL,,41.880167,-87.66684099999998
P003075090,7150,S MICHIGAN,Chicago,IL,,41.88082899999999,-87.62424199999998
P003879182,2550,S SAWYER,Chicago,IL,,41.845387054982645,-87.70628147123337
P003177673,350,W 73RD ST,Chicago,IL,,41.76173014774381,-87.63373462154259
P003261011,250,W 59TH STREET,Chicago,IL,,41.787215,-87.63219199999997
P003795982,4850,S ASHLAND,Chicago,IL,,41.880167,-87.66684099999998
P003107613,1250,W NORTH,Chicago,IL,,41.91118099999999,-87.631682
P003178081,3550,N OAK PARK,Chicago,IL,,41.94434960898265,-87.79594257082856
P001964187,5150,N KENMORE,Chicago,IL,,41.97582887164194,-87.65640031989453
P003164493,3050,E 79TH ST,Chicago,IL,,41.751103,-87.61572999999999
P003047630,2150,S TRUMBULL,Chicago,IL,,41.85275471337878,-87.71117632583929
P003298745,1150,N LAKE SHORE DR,Chicago,IL,,41.883186,-87.61610999999998
P003878178,1550,S CALIFORNIA,Chicago,IL,,41.86012199999999,-87.69571799999999
P002106645,6150,S VERNON,Chicago,IL,,41.69093399999999,-87.61210599999998
P002153320,4450,S MARSHFIELD,Chicago,IL,,41.81311697051715,-87.66631908647975
P003220361,3650,W 26 ST,Chicago,IL,,,
P003222926,2650,S ST LOUIS,Chicago,IL,,41.87724099999999,-87.713487
P003257079,5150,W CHICAGO,Chicago,IL,,41.89495010045195,-87.75453249657406
P003160057,7050,S KINGSTON,Chicago,IL,,,
P003220372,3350,W 26ST,Chicago,IL,,,
P003010916,1250,N L S D,Chicago,IL,,,
P003055172,450,N CENTRAL,Chicago,IL,,41.88883253143931,-87.76516237135478
P003311601,3850,W ROOSEVELT RD,Chicago,IL,,41.867341,-87.63719399999998
P003000263,4650,N BROADWAY,Chicago,IL,,41.933605,-87.64466299999998
P003995277,6550,S OAKLEY,Chicago,IL,,41.880738,-87.68395199999998
P003137949,50,E 71ST,Chicago,IL,,41.765543,-87.62329499999998
P002037581,5050,S RACINE,Chicago,IL,,41.802572012438134,-87.65508666697515
P003180604,3550,W CHICAGO,Chicago,IL,,41.89664299999999,-87.63070499999998
P003797322,150,S HALSTED,Chicago,IL,,41.88049199999999,-87.647322
P003256477,550,W 118TH ST,Chicago,IL,,41.67981799999999,-87.62517199999998
P003122262,1150,W HOLLYWOOD,Chicago,IL,,41.985483,-87.658073
P003764479,50,N KEDZIE,Chicago,IL,,41.88209150011212,-87.70615398214683
P003051973,1050,N WELLS,Chicago,IL,,41.90172244825378,-87.63439732493282
P003812326,850,W 63RD ST,Chicago,IL,,41.779719303948326,-87.6467046036532
P003016939,850,W 32ND ST,Chicago,IL,,41.83643899999999,-87.64770199999998
P002522014,1250,N SEDGWICK,Chicago,IL,,41.905394078928275,-87.63841206404231
P003168466,7150,S MICHIGAN,Chicago,IL,,41.88082899999999,-87.62424199999998
P003127310,8350,S BOND ST,Chicago,IL,,,
P003222328,4350,W 28TH ST,Chicago,IL,,41.84045299999999,-87.73356899999999
P003160056,7950,S BURNHAM,Chicago,IL,,41.750712110234964,-87.55651278387833
P003257060,4950,W CHICAGO,Chicago,IL,,41.89664299999999,-87.63070499999998
P003222758,3350,W ROOSEVELT,Chicago,IL,,41.867359,-87.63570699999998
P003878866,2450,S ST LOUIS,Chicago,IL,,41.87776900000001,-87.713503
P002194885,6350,S KOSTNER,Chicago,IL,,41.777502013335535,-87.73249663673664
P003216190,2650,W MONTROSE,Chicago,IL,,41.96126835000426,-87.69547799872267
P003807704,11550,S PARNELL,Chicago,IL,,41.684255059143425,-87.63608129623087
P003122269,5050,N BROADWAY,Chicago,IL,,41.933605,-87.64466299999998
P003139713,7150,S CORNELL,Chicago,IL,,41.76510069548244,-87.58474918312052
P003206027,9050,S COMMERCIAL,Chicago,IL,,41.73058499999999,-87.55126899999998
P002524275,4050,N KIMBALL,Chicago,IL,,41.95527936004153,-87.71295656000133
P003251730,1550,N ST LOUIS,Chicago,IL,,41.90953499999999,-87.714342
P003221905,4150,W 13TH ST,Chicago,IL,,41.86569899999999,-87.629432
P003136199,11650,S HALSTED ST,Chicago,IL,,41.88049199999999,-87.647322
P003372405,4050,W 16TH ST,Chicago,IL,,41.8588441,-87.72699859999999
P003795760,4750,W FLOURNOY,Chicago,IL,,41.87229599999999,-87.74388299999998
P003196853,1050,N LAWNDALE,Chicago,IL,,41.90001564834561,-87.71890518199591
P003175630,2450,E 79TH ST,Chicago,IL,,41.751750324746105,-87.56468844632465
P003166367,2350,N MANGO,Chicago,IL,,41.92279897944408,-87.76959651019868
P003257098,5850,S ASHLAND,Chicago,IL,,41.880167,-87.66684099999998
P003122260,1150,W THORNDALE,Chicago,IL,,41.99003677651593,-87.65926261265396
P003009079,850,E 79TH ST,Chicago,IL,,41.75099399999999,-87.62219299999998
P003082561,5050,N LAVERGNE,Chicago,IL,,41.89133499999999,-87.75057499999998
P003199001,650,N ASHLAND,Chicago,IL,,41.88193199999999,-87.66689199999998
P002156677,5350,N NAGLE,Chicago,IL,,41.97862613007181,-87.78781652889877
P003122271,5750,N BROADWAY,Chicago,IL,,41.98636472955987,-87.66015139004222
P003133988,2850,W DEVON,Chicago,IL,,41.99753242227253,-87.70119135273805
P003256859,250,N LATROBE,Chicago,IL,,41.88489362004653,-87.75645329259146
P003222834,2450,S TROY,Chicago,IL,,41.877335,-87.70478699999998
P003007836,7150,S LAFLIN,Chicago,IL,,41.87211099999999,-87.66416399999999
P003223041,4250,W CERMAK RD,Chicago,IL,,41.852792,-87.63853199999998
P003304103,1050,W BRYN MAWR,Chicago,IL,,41.98367330386539,-87.65711399223068
P003221602,850,N MICHIGAN,Chicago,IL,,41.88447099999999,-87.62445199999998
P003869905,1550,S CHRISTIANA,Chicago,IL,,41.859941188336336,-87.70913998534759
P003077182,850,N MICHIGAN,Chicago,IL,,41.88447099999999,-87.62445199999998
P003795775,1650,W 69TH ST,Chicago,IL,,41.7691,-87.628264
P003251180,2550,N KIMBALL,Chicago,IL,,41.927863,-87.71219699999997
P003111969,450,N CLINTON,Chicago,IL,,41.883177,-87.64123299999999
P003232023,3150,S UNION ST,Chicago,IL,,,
P003070756,1050,N ORLEANS,Chicago,IL,,41.90206599999999,-87.63738399999998
P001964186,1050,W WINONA ST,Chicago,IL,,41.97525224763081,-87.65699924996622
P003139714,1750,E 71ST ST,Chicago,IL,,41.765543,-87.62329499999998
P003180628,3750,W CHICAGO,Chicago,IL,,41.89664299999999,-87.63070499999998
P003967391,3250,W PALMER SQ,Chicago,IL,,41.92081199999999,-87.70749699999998
P003257092,5450,W MADISON,Chicago,IL,,41.88204199999999,-87.62780599999998
P003115079,6850,S ASHLAND,Chicago,IL,,41.874251,-87.666686
P003112122,750,E MARQUETTE,Chicago,IL,,41.77284699999999,-87.62209799999998
P003135807,10550,S LASALLE,Chicago,IL,,,
P003139704,350,E 60TH ST,Chicago,IL,,41.78564999999999,-87.618994
P003257072,50,N LEAMINGTON,Chicago,IL,,,
P003872604,250,W 68 ST,Chicago,IL,,,
P003134979,6150,N SHERIDAN,Chicago,IL,,41.99380299999999,-87.655501
P003803604,6350,S ASHLAND,Chicago,IL,,41.874251,-87.666686
P003125406,450,E 61ST ST,Chicago,IL,,41.78374099999999,-87.62379799999998
P003167054,5350,W WELLINGTON ST,Chicago,IL,,,
P003180629,3750,W CHICAGO,Chicago,IL,,41.89664299999999,-87.63070499999998
P003952280,1150,W BRYN MAWR,Chicago,IL,,41.98363599999999,-87.65931199999999
P003830101,4950,S ASHLAND,Chicago,IL,,41.80393102454967,-87.66484313267765
P001897340,3450,W 16TH ST,Chicago,IL,,41.8590152,-87.7123051
P003021967,6650,S CHAMPLAIN,Chicago,IL,,41.77353399999999,-87.60942899999998
P003221603,850,N MICHIGAN,Chicago,IL,,41.88447099999999,-87.62445199999998
P003117849,550,E 62ND ST ST,Chicago,IL,,41.782136,-87.611463
P003248461,5950,S UNION,Chicago,IL,,41.785860959896844,-87.64250660145895
P003256870,5150,W MADISON,Chicago,IL,,41.88204199999999,-87.62780599999998
P003303801,5150,S DAMEN,Chicago,IL,,41.88001299999999,-87.67661199999998
P003803613,2650,E 79TH ST,Chicago,IL,,41.75097999999999,-87.622996
P003236677,550,W 88TH ST,Chicago,IL,,41.734344614543254,-87.63814276875095
P003087101,8350,S RACINE,Chicago,IL,,41.71069099999999,-87.652625
P003330322,11350,S MICHIGAN,Chicago,IL,,41.68778100123104,-87.62097751751092
P003803603,10550,S WENTWORTH,Chicago,IL,,41.70227906555977,-87.62814866663626
P003189004,350,N WELLS,Chicago,IL,,41.88320999999999,-87.63385999999998
P004350477,2150,S PULASKI RD,Chicago,IL,,41.877087,-87.72554599999998
P003804301,5950,S CARPENTER,Chicago,IL,,41.785785112751796,-87.65101821926355
P002085715,5750,N SHERIDAN RD,Chicago,IL,,41.9869323076923,-87.65528699999999
P003968703,2050,W NORTH,Chicago,IL,,41.91118099999999,-87.631682
P003221427,1250,S KOLIN,Chicago,IL,,41.864224,-87.73367999999998
P003257132,5050,W MADISON ST,Chicago,IL,,41.880418170423425,-87.75142094678141
P003222752,3650,W ROOSEVELT RD,Chicago,IL,,41.867359,-87.63570699999998
P003009082,1050,E 79TH ST,Chicago,IL,,41.750973,-87.62349300000001
P003243179,1550,W DEVON,Chicago,IL,,41.998090043477696,-87.66942117395186
P001897339,7750,S ASHLAND,Chicago,IL,,41.753065428255404,-87.66350305357994
P003837326,5050,S WOOD,Chicago,IL,,41.80237402884015,-87.6696728043441
P003995301,4450,S WOOD,Chicago,IL,,41.880087,-87.671712
P003139712,1850,E 67TH STREET,Chicago,IL,,41.77334250599127,-87.58525700272348
P003220369,3350,W 30TH ST,Chicago,IL,,41.839511,-87.62954700000002
P003052976,1350,N SEDGWICK,Chicago,IL,,41.907102702929684,-87.63846749182017
P003111968,550,W KINZIE ST,Chicago,IL,,41.88905799999999,-87.64139199999998
P003207726,2650,E 79TH ST,Chicago,IL,,41.75097999999999,-87.622996
P003221004,1450,S KARLOV,Chicago,IL,,41.861552884465254,-87.72747895355336
P003139725,1950,E 71ST ST,Chicago,IL,,41.76620521951219,-87.57738082926828
P003064652,6950,S SOUTH CHICAGO,Chicago,IL,,41.769062313131315,-87.61003846464645
P003274084,6750,S DAMEN,Chicago,IL,,41.88001299999999,-87.67661199999998
P003214777,350,W 35TH ST,Chicago,IL,,41.83097,-87.62959399999998
P003330957,9750,S LOWE,Chicago,IL,,41.71695209460837,-87.63944805565663
P003090514,7150,S LUELLA,Chicago,IL,,41.765244326530606,-87.57014220408163
P002088476,1250,W 111TH ST,Chicago,IL,,41.69252699999999,-87.62790699999998
P003131702,5450,N CALIFORNIA,Chicago,IL,,41.88289799999999,-87.69633499999998
P003329099,3250,S MORGAN,Chicago,IL,,41.834808085394975,-87.65106383337415
P003256913,5150,W MADISON ST,Chicago,IL,,41.88204199999999,-87.62780599999998
P003803605,6350,S ASHLAND,Chicago,IL,,41.874251,-87.666686
P003162351,2950,E 79 ST,Chicago,IL,,,
P003133579,1650,W HOWARD,Chicago,IL,,42.019429,-87.69487900000001
P003117832,150,E 71ST ST,Chicago,IL,,41.765543,-87.62329499999998
P003801803,11250,S MICHIGAN,Chicago,IL,,41.86753,-87.62402099999998
P003085410,1450,W 83RD ST,Chicago,IL,,41.743116,-87.660218
P003870532,3450,W 26TH ST,Chicago,IL,,41.84443104676221,-87.71131040919529
P003168454,6950,S M L K,Chicago,IL,,,
P003249574,6450,S COTTAGE GROVE,Chicago,IL,,41.77766748058194,-87.60586860287782
P003764484,3350,W CHICAGO,Chicago,IL,,41.89664299999999,-87.63070499999998
P003110033,1650,W MADISON,Chicago,IL,,41.88143727385352,-87.66810250998716
P003764485,3850,W CHICAGO,Chicago,IL,,41.89664299999999,-87.63070499999998
P003168340,1750,E 71ST ST,Chicago,IL,,41.765543,-87.62329499999998
P003803612,2650,E 79TH ST,Chicago,IL,,41.75097999999999,-87.622996
P003259555,5950,S HALSTED,Chicago,IL,,41.88049199999999,-87.647322
P003951452,1050,W ARGYLE,Chicago,IL,,41.97330199999999,-87.655635
P003147551,12050,S PERRY,Chicago,IL,,41.675294633119776,-87.62498351426714
P003041325,6750,S EAST END,Chicago,IL,,41.77288899999999,-87.58385
P003018700,1550,W 51ST ST,Chicago,IL,,41.801828,-87.63070799999998
P003251189,3150,W GEORGE,Chicago,IL,,41.93386049006701,-87.70690380621801
P003872529,4050,W 16TH ST,Chicago,IL,,41.8588441,-87.72699859999999
P003115878,6950,S ASHLAND,Chicago,IL,,41.874251,-87.666686
P003218236,4550,S WOLCOTT ST,Chicago,IL,,,
P003122270,5050,N BROADWAY,Chicago,IL,,41.933605,-87.64466299999998
P003223027,1850,S KEELER,Chicago,IL,,41.88014799999999,-87.73055699999998
P003117839,2050,E 71ST ST,Chicago,IL,,41.765543,-87.62329499999998
P003118910,750,N MICHIGAN,Chicago,IL,,41.88447099999999,-87.62445199999998
P003274347,50,E MADISON,Chicago,IL,,41.88208496284374,-87.62597557266825
P003359734,4850,S JUSTINE ST,Chicago,IL,,41.80586220333365,-87.66367849716757
P003797315,6550,S CAMPBELL,Chicago,IL,,41.872956,-87.68863799999998
P003167628,3550,W NORTH,Chicago,IL,,41.91118099999999,-87.631682
P002514907,2750,E 79TH,Chicago,IL,,41.75097999999999,-87.622996
P003996157,6150,S M L K DR,Chicago,IL,,,
P003117842,6650,S KING,Chicago,IL,,41.774883,-87.61549399999998
P003257151,550,S CENTRAL,Chicago,IL,,41.87420399999999,-87.71567499999998
P003009198,150,W OHIO,Chicago,IL,,41.89245799999999,-87.62888799999998
P003899976,1150,N ASHLAND,Chicago,IL,,41.88172099999999,-87.66687299999998
P003862779,8950,S ASHLAND,Chicago,IL,,41.880167,-87.66684099999998
P003968705,3550,W BARRY,Chicago,IL,,41.937412,-87.71610900000002
P003801792,8150,S COTTAGE GROVE,Chicago,IL,,41.746693850394074,-87.60510850410911
P003324901,250,W 63RD ST,Chicago,IL,,41.780011,-87.62823099999999
P003044887,8650,S COLFAX,Chicago,IL,,41.73814849246039,-87.56116231062245
P003213235,3250,W LAKE,Chicago,IL,,41.885745,-87.62949799999998
P003162407,5650,W CHICAGO,Chicago,IL,,41.89664299999999,-87.63070499999998
P003805680,8350,S ASHLAND ST,Chicago,IL,,,
P002302357,8250,S PULASKI,Chicago,IL,,41.87976199999999,-87.72563699999998
P003828001,5450,S ABERDEEN,Chicago,IL,,41.875112,-87.654442
P003232013,750,W 31ST ST,Chicago,IL,,41.83805784882261,-87.64523952830855
P003221931,4350,W ROOSEVELT,Chicago,IL,,41.867254,-87.639218
P003235555,3550,W 111TH,Chicago,IL,,41.691665,-87.62426599999998
P003811731,6850,S ASHLAND,Chicago,IL,,41.874251,-87.666686
P003220371,2850,S DRAKE,Chicago,IL,,41.84027689090557,-87.71345819900635
P003117845,7150,S STATE,Chicago,IL,,41.76523499999999,-87.62490099999998
P003117827,50,E 71ST ST,Chicago,IL,,41.765543,-87.62329499999998
P003981816,1250,W 83RD ST,Chicago,IL,,41.743186,-87.65536099999998
P003043885,4150,W 26TH ST,Chicago,IL,,41.845415,-87.639953
P002032437,6250,S KING DR,Chicago,IL,,41.781370430840774,-87.61565303821236
P003031575,1650,W HOWARD,Chicago,IL,,42.019429,-87.69487900000001
P003208306,10950,S EWING,Chicago,IL,,41.696366408834216,-87.53528199999998
P003764486,250,N PULASKI,Chicago,IL,,41.88480768801469,-87.72578630415323
P003888026,50,E CHICAGO AV,Chicago,IL,,41.896706,-87.626165
P002524270,3050,W BELMONT,Chicago,IL,,41.94013799999999,-87.63955399999998
P003871185,3250,W 26 ST,Chicago,IL,,,
P003808887,350,W 105 ST,Chicago,IL,,,
P003801071,50,N LE CLAIRE,Chicago,IL,,,
P003825553,6250,S COTTAGE GROV,Chicago,IL,,,
P003876071,2550,S KEDZIE,Chicago,IL,,41.84540746160037,-87.7050655698103
P004012402,50,S LOCKWOOD ST,Chicago,IL,,,
P003872165,3150,S ST LOUIS,Chicago,IL,,41.83635699999999,-87.71207599999998
P003769394,3750,W CHICAGO,Chicago,IL,,41.89664299999999,-87.63070499999998
P004283606,6850,S CALUMET AV,Chicago,IL,,41.770198496477114,-87.61698850403515
P003949960,5450,N BROADWAY,Chicago,IL,,41.933605,-87.64466299999998
P003949598,5050,N BROADWAY,Chicago,IL,,41.933605,-87.64466299999998
P003873752,1250,S CALIFORNIA,Chicago,IL,,41.87971199999999,-87.69624899999998
P003853828,1550,E 75TH ST,Chicago,IL,,41.75875899999999,-87.586792
P003878597,2450,S DRAKE,Chicago,IL,,41.84711795872911,-87.71364695379637
P004061505,2350,W 63RD ST,Chicago,IL,,41.780011,-87.62823099999999
P003863373,1050,W 103RD ST,Chicago,IL,,41.70714699999999,-87.62473199999998
P003767750,550,S KEDZIE,Chicago,IL,,41.874625,-87.70594200000001
P003967094,1850,N WESTERN,Chicago,IL,,41.91471599999999,-87.687336
P003797030,3950,W DIVISION,Chicago,IL,,41.90268021357338,-87.72544113285711
P004145430,10450,S STATE,Chicago,IL,,41.880743,-87.62772699999998
P004061601,5250,S ASHLAND,Chicago,IL,,41.880167,-87.66684099999998
P003930957,3750,N CLARK,Chicago,IL,,41.95032741680099,-87.6590362770244
P004215363,3050,W NORTH,Chicago,IL,,41.91118099999999,-87.631682
P003809753,750,E 79TH ST,Chicago,IL,,41.75099399999999,-87.62219299999998
P003968714,2450,W ARMITAGE,Chicago,IL,,41.91755092608429,-87.69015087522962
P004283581,2750,S TRIPP,Chicago,IL,,41.84139123696148,-87.73055253638704
P003807497,11850,S MICHIGAN,Chicago,IL,,41.86753,-87.62402099999998
P003796481,350,N LARAMIE,Chicago,IL,,41.88709596892358,-87.75532143545817
P003857076,3550,E 106TH,Chicago,IL,,41.70274327015451,-87.53752564754686
P003873736,3950,W OGDEN,Chicago,IL,,41.85143133333333,-87.72373166666667
P003990304,550,W ROOSEVELT RD,Chicago,IL,,41.86724099999999,-87.64072199999998
P003805522,6950,S ASHLAND,Chicago,IL,,41.874251,-87.666686
P003207736,8050,S ESCANABA,Chicago,IL,,41.74915045792578,-87.55405915271898
P003769982,1950,W HOWARD,Chicago,IL,,42.019429,-87.69487900000001
P003769386,750,N HOMAN,Chicago,IL,,41.88274299999999,-87.711061
P003912742,6150,N SHERIDAN,Chicago,IL,,41.99380299999999,-87.655501
P003826554,1650,W 47TH ST,Chicago,IL,,41.809142,-87.63149699999998
P004284029,1450,S CHRISTIANA,Chicago,IL,,41.86137074129583,-87.70918166728525
P003783154,4050,W ARMITAGE,Chicago,IL,,41.9171454217478,-87.72813952806027
P003871552,3550,W 26TH STREET,Chicago,IL,,41.844393679992216,-87.71420332059206
P003953237,5650,S STATE,Chicago,IL,,41.791593808255634,-87.62562140020188
P004070130,3550,W MADISON,Chicago,IL,,41.880868482764406,-87.71478741335513
P003878174,3350,W 26TH STREET,Chicago,IL,,41.844458,-87.70929599999998
P003770803,3050,W MADISON ST,Chicago,IL,,41.881917,-87.63676599999998
P004062041,1650,S SPRINGFIELD,Chicago,IL,,41.87845699999999,-87.723151
P003912745,7250,N SHERIDAN,Chicago,IL,,42.013121356646366,-87.6636103032902
P003966784,1450,N WESTERN,Chicago,IL,,41.88208499999999,-87.68645699999998
P003770805,5150,W CHICAGO,Chicago,IL,,41.89495010045195,-87.75453249657406
P003877772,4350,W CERMAK RD,Chicago,IL,,41.851536,-87.733418
P003936644,4650,N LINDER,Chicago,IL,,41.965074,-87.76494099999998
P004286876,4550,S HERMITAGE,Chicago,IL,,41.81127984917965,-87.66868953459435
P003984827,3250,W MADISON,Chicago,IL,,41.881917,-87.63676599999998
P003877885,2450,S SPAULDING,Chicago,IL,,41.84673501294982,-87.7075424044447
P003808897,850,W 115 ST,Chicago,IL,,,
P004110881,6850,S JEFFREY,Chicago,IL,,,
P003876479,2650,S SPAULDING,Chicago,IL,,41.880287,-87.70848399999998
P003874696,3250,W 24TH ST,Chicago,IL,,41.84811899506481,-87.70673987260638
P003936163,5650,N HARLEM,Chicago,IL,,41.98322252632789,-87.80693741012898
P004286376,6850,S WESTERN,Chicago,IL,,41.88030499999999,-87.686413
P003967962,1650,N MILWAUKEE,Chicago,IL,,41.91099708163265,-87.67838412244896
P003872853,3650,W 31ST,Chicago,IL,,41.83830100000001,-87.62677300000001
P003826551,4750,S ASHLAND,Chicago,IL,,41.880167,-87.66684099999998
P004308706,750,S WABASH,Chicago,IL,,41.87005800000001,-87.62589599999998
P003800752,1550,N CENTRAL PARK,Chicago,IL,,41.90919980596804,-87.71677699402979
P004286466,2050,E 71ST ST,Chicago,IL,,41.765543,-87.62329499999998
P003767745,3150,W VAN BUREN,Chicago,IL,,41.876899,-87.62926199999998
P003950085,4850,N BROADWAY,Chicago,IL,,41.933605,-87.64466299999998
P003974602,50,W 79TH ST,Chicago,IL,,41.750918802787474,-87.6264295036911
P003949965,1250,W AINSLIE,Chicago,IL,,41.97144499999999,-87.660741
P003878063,2650,S CALIFORNIA,Chicago,IL,,41.844639,-87.69521399999998
P003769377,250,N PULASKI,Chicago,IL,,41.88480768801469,-87.72578630415323
P003889072,150,W ONTARIO ST,Chicago,IL,,41.8932025550582,-87.63295628469048
P003134982,6150,N SHERIDAN,Chicago,IL,,41.99380299999999,-87.655501
P003814808,6450,S ASHLAND,Chicago,IL,,41.874251,-87.666686
P003902303,2350,W MADISON,Chicago,IL,,41.88194599999999,-87.63382399999998
P004235451,1050,N RUSH ST,Chicago,IL,,41.901169734693866,-87.62770589795917
P004029282,450,W DIVISION ST,Chicago,IL,,41.90392299999999,-87.629986
P003813306,6450,S ASHLAND,Chicago,IL,,41.874251,-87.666686
P003769423,550,N HOMAN,Chicago,IL,,41.88274299999999,-87.711061
P003872239,4250,W CERMAK,Chicago,IL,,41.852792,-87.63853199999998
P003814811,6250,S ASHLAND,Chicago,IL,,41.874251,-87.666686
P003976735,7550,S STEWART,Chicago,IL,,41.757147400184564,-87.63446105370319
P004159002,7150,S YATES,Chicago,IL,,41.76510022412715,-87.5664937011395
P004070126,3350,W CHICAGO,Chicago,IL,,41.89664299999999,-87.63070499999998
P003873011,2650,S TRUMBULL,Chicago,IL,,41.84350136067575,-87.71110450393823
P004098636,3550,S ROCKWELL ST,Chicago,IL,,41.82900628412883,-87.68989165803629
P003795852,4950,W WALTON,Chicago,IL,,41.89771279198683,-87.74956948161214
P003952298,1150,W BRYN MAWR,Chicago,IL,,41.98363599999999,-87.65931199999999
P003967956,2050,N ASHLAND,Chicago,IL,,41.88193199999999,-87.66689199999998
P003767733,3250,W JACKSON,Chicago,IL,,41.878084,-87.63666999999998
P004158029,1150,E 67TH ST,Chicago,IL,,41.772877,-87.62145699999998
P003769404,3250,W ARTHINGTON,Chicago,IL,,41.870057017316334,-87.70627261469316
P003808108,10150,S EMERALD,Chicago,IL,,41.759762,-87.64305299999998
P003994226,4150,S ASHLAND,Chicago,IL,,41.880167,-87.66684099999998
P003913076,2650,W PETERSON,Chicago,IL,,41.9904612127513,-87.69610793830971
P003829757,1950,W 47TH ST,Chicago,IL,,41.809142,-87.63149699999998
P004191707,450,N PULASKI,Chicago,IL,,41.88894427970267,-87.72589936029327
P003877454,2550,S KARLOV,Chicago,IL,,41.88017399999999,-87.72810299999998
P004070256,550,N HOMAN,Chicago,IL,,41.88274299999999,-87.711061
P003902304,2950,W MADISON ST,Chicago,IL,,41.88194599999999,-87.63382399999998
P003897227,550,W KINZIE ST,Chicago,IL,,41.88905799999999,-87.64139199999998
P004103108,950,N MICHIGAN,Chicago,IL,,41.88447099999999,-87.62445199999998
P003994990,5050,S ASHLAND,Chicago,IL,,41.880167,-87.66684099999998
P003770771,3050,W MADISON,Chicago,IL,,41.881917,-87.63676599999998
P004284455,450,E 63RD ST,Chicago,IL,,41.780033,-87.622072
P003878189,1050,S FRANCISCO,Chicago,IL,,41.86886899999999,-87.69841699999998
P003949007,4950,N SHERIDAN,Chicago,IL,,41.97246419536369,-87.65490597237962
P003966186,2550,W NORTH,Chicago,IL,,41.91118099999999,-87.631682
P004070128,50,S KEDZIE,Chicago,IL,,41.88064498255436,-87.70611199936172
P003994217,5250,S ASHLAND,Chicago,IL,,41.880167,-87.66684099999998
P004250805,2250,S LEAVITT,Chicago,IL,,41.880493,-87.68151799999998
P003995512,2750,W 61ST,Chicago,IL,,41.782575,-87.63268199999999
P003940734,3350,N CENTRAL,Chicago,IL,,41.88776399999999,-87.71655799999998
P002155833,5350,W BELMONT,Chicago,IL,,41.93865217064128,-87.76039158597173
P003994247,5250,S ASHLAND,Chicago,IL,,41.880167,-87.66684099999998
P003811959,6350,S ASHLAND,Chicago,IL,,41.874251,-87.666686
P003878054,3650,W 26TH ST,Chicago,IL,,41.84435860000932,-87.7166454794287
P003876062,1350,S HOMAN,Chicago,IL,,41.879114,-87.71094999999998
P003787178,1250,N LAMON,Chicago,IL,,41.88441799999999,-87.74786799999998
P003882928,1250,N LA SALLE,Chicago,IL,,41.88257999999999,-87.632379
P003874976,3750,W DOUGLAS BLVD,Chicago,IL,,41.862371,-87.71774399999998
P003949585,5050,N WINTHROP,Chicago,IL,,41.974276073901954,-87.65776107585985
P004166430,3950,W ROOSEVELT RD,Chicago,IL,,41.867341,-87.63719399999998
P003907904,7350,N SHERIDAN,Chicago,IL,,42.015250474055684,-87.66481309852855
P003936923,7250,S HALSTED ST,Chicago,IL,,41.88049199999999,-87.647322
P003980259,850,E 79TH ST,Chicago,IL,,41.75099399999999,-87.62219299999998
P003949959,5250,N LINCOLN,Chicago,IL,,41.977684,-87.69254300000001
P003770135,3550,W CHICAGO,Chicago,IL,,41.89664299999999,-87.63070499999998
P003952291,1150,W BRYN MAWR,Chicago,IL,,41.98363599999999,-87.65931199999999
P003871158,2450,S ST LOUIS,Chicago,IL,,41.87776900000001,-87.713503
P003882164,1150,N WELLS ST,Chicago,IL,,41.90337840681337,-87.63445987550357
P003785137,8050,S ASHLAND,Chicago,IL,,41.880167,-87.66684099999998
P003966603,2450,W FULLERTON,Chicago,IL,,41.924542,-87.72188199999998
P003910726,1150,W 51ST ST,Chicago,IL,,41.801828,-87.63070799999998
P004166426,3850,W ROOSEVELT RD,Chicago,IL,,41.867341,-87.63719399999998
P003994991,5050,S ASHLAND,Chicago,IL,,41.880167,-87.66684099999998
P003808110,350,W 115TH ST,Chicago,IL,,41.68529699999999,-87.62478799999998
P003806279,750,E 75TH ST,Chicago,IL,,41.75829199999999,-87.62153599999998
P004286379,2450,W 69TH ST,Chicago,IL,,41.76905699999999,-87.63136199999998
P003799352,5250,W FULTON,Chicago,IL,,41.88561992471958,-87.7567937589522
P003984901,1450,W ROOSEVELT,Chicago,IL,,41.86689685883035,-87.6628159047617
P003974855,8550,S COMMERCIAL,Chicago,IL,,41.74009094738049,-87.55147970242933
P003806027,7750,S COTTAGE GROVE,Chicago,IL,,41.75400138566432,-87.60527231295309
P003787451,5850,W NORTH,Chicago,IL,,41.9093,-87.77197
P003879146,2750,S LAWNDALE,Chicago,IL,,41.841580816030934,-87.7171550528532
P003966187,1250,N CALIFORNIA,Chicago,IL,,41.883836,-87.69636099999998
P004263252,7250,N SHERIDAN,Chicago,IL,,42.013121356646366,-87.6636103032902
P003877326,1350,S KOSTNER,Chicago,IL,,41.878306,-87.73539599999998
P004063352,1650,W GARFIELD BLVD,Chicago,IL,,41.794012,-87.66579299999998
P003975580,1550,W 78TH ST ST,Chicago,IL,,41.75273099999999,-87.62707600000002
P004285804,1650,W 43RD ST,Chicago,IL,,41.81647399999999,-87.627364
P004269251,3950,W NORTH,Chicago,IL,,41.91118099999999,-87.631682
P004005487,1050,W SUNNYSIDE,Chicago,IL,,41.963597,-87.65550899999998
P003808485,650,E 79TH ST,Chicago,IL,,41.75099399999999,-87.62219299999998
P003966028,3250,W DIVISION,Chicago,IL,,41.902813,-87.70877899999998
P003837337,5350,S MARSHFIELD,Chicago,IL,,41.79673142060045,-87.66587105339086
P003853634,8750,S EXCHANGE,Chicago,IL,,41.73643283269758,-87.55279649028549
P003963563,3350,W EVERGREEN,Chicago,IL,,41.90552768784776,-87.71056842306533
P004229527,4750,S WHIPPLE,Chicago,IL,,41.87980499999999,-87.702016
P003798493,7950,S ASHLAND,Chicago,IL,,41.87163,-87.66643899999998
P003872245,1250,S CALIFORNIA,Chicago,IL,,41.87971199999999,-87.69624899999998
P003952295,1150,W BRYN MAWR,Chicago,IL,,41.98363599999999,-87.65931199999999
P004010903,350,S CICERO,Chicago,IL,,42.317834999999995,-87.863182
P004284382,50,E 71ST,Chicago,IL,,41.765543,-87.62329499999998
P003047488,2350,S WHIPPLE ST,Chicago,IL,,41.87782299999999,-87.702365
P003980313,250,W 79TH ST,Chicago,IL,,41.750854269848844,-87.63009091045879
P003781012,4550,W WRIGHTWOOD,Chicago,IL,,41.93085599999999,-87.64086899999998
P003906002,6150,N SHERIDAN RD,Chicago,IL,,41.99380299999999,-87.655501
P003814776,6950,S WOLCOTT,Chicago,IL,,41.767428580373114,-87.67117022521963
P004070143,3950,W FERDINAND,Chicago,IL,,41.88986599999999,-87.72529799999998
P004284038,6350,S ARTESIAN,Chicago,IL,,41.778139881263975,-87.68482983055739
P003802672,1950,S ASHLAND,Chicago,IL,,41.880167,-87.66684099999998
P004286676,4650,S HONORE,Chicago,IL,,41.80966333905753,-87.67107786212152
P003863705,1150,W 111TH ST,Chicago,IL,,41.69252699999999,-87.62790699999998
P003873619,150,,Chicago,IL,,41.651808410459935,-87.61811559747788
P003968716,1550,N ASHLAND,Chicago,IL,,41.88193199999999,-87.66689199999998
P003851940,2850,E 79TH ST,Chicago,IL,,41.75097999999999,-87.622996
P003943544,5150,N MILWAUKEE,Chicago,IL,,41.97409799999999,-87.76632899999998
P003090711,550,W 115TH ST,Chicago,IL,,41.68515299999999,-87.63646213421366
P004191679,3450,W CHICAGO,Chicago,IL,,41.89664299999999,-87.63070499999998
P003090705,11250,S WENTWORTH,Chicago,IL,,41.857775,-87.6319
P003804930,12050,S WENTWORTH,Chicago,IL,,41.67526108579322,-87.6273931149678
P003766279,1150,N KEYSTONE,Chicago,IL,,41.883346,-87.72717
P003134981,6150,N SHERIDAN,Chicago,IL,,41.99380299999999,-87.655501
P004332501,6350,S WOOD,Chicago,IL,,41.873167,-87.67153299999998
P003966200,2750,,Chicago,IL,,41.819289000000005,-87.69393499999998
P004269801,1250,N PULASKI,Chicago,IL,,41.90445700000001,-87.726351
P003767156,4650,W SUPERIOR,Chicago,IL,,41.89565699999999,-87.62975399999998
P004166429,3650,W 16TH ST,Chicago,IL,,41.858956699468095,-87.71661541045958
P003770808,3450,W CHICAGO,Chicago,IL,,41.89664299999999,-87.63070499999998
P003767169,250,N PULASKI,Chicago,IL,,41.88480768801469,-87.72578630415323
P003876066,2250,S KEDZIE,Chicago,IL,,41.85064951566702,-87.70521994707957
P003813307,1150,W 69TH ST,Chicago,IL,,41.76869299999999,-87.65421099999998
P004070149,3650,W FLOURNOY,Chicago,IL,,41.872638159128925,-87.71652697329596
P004229533,3250,S MORGAN,Chicago,IL,,41.834808085394975,-87.65106383337415
P003878064,3250,W CERMAK,Chicago,IL,,41.852854,-87.63677799999998
P003960166,250,E 47TH ST,Chicago,IL,,41.809249,-87.625268
P004314601,150,W 109TH ST,Chicago,IL,,41.69618767467837,-87.62651833903453
P003963972,3550,W WABANSIA,Chicago,IL,,41.91182733341126,-87.71545715881425
P004326003,7050,S WESTERN,Chicago,IL,,41.88030499999999,-87.686413
P004215362,3350,W NORTH,Chicago,IL,,41.91118099999999,-87.631682
P003798488,5150,W CHICAGO,Chicago,IL,,41.89495010045195,-87.75453249657406
P003767157,3450,W AUGUSTA,Chicago,IL,,41.89914,-87.71277499999998
P003775675,6150,S VERNON,Chicago,IL,,41.69093399999999,-87.61210599999998
P003878067,2750,S WESTERN,Chicago,IL,,41.88030499999999,-87.686413
P003865010,10550,S WESTERN,Chicago,IL,,41.70180080984989,-87.68147600660927
P003776657,1150,E 67TH ST,Chicago,IL,,41.772877,-87.62145699999998
P003134454,6150,N SHERIDAN RD,Chicago,IL,,41.99380299999999,-87.655501
P003764498,50,S KEDZIE,Chicago,IL,,41.88064498255436,-87.70611199936172
P003972028,1050,W 81ST ST,Chicago,IL,,41.747261,-87.626935
P003936637,5050,W BELMONT,Chicago,IL,,41.93874717054681,-87.75304152395208
P003940533,8250,W ADDISON,Chicago,IL,,41.94730299999999,-87.65069699999998
P003767158,50,N PULASKI,Chicago,IL,,41.88166550072348,-87.72569698164423
P004098635,3050,S HALSTED,Chicago,IL,,41.88049199999999,-87.647322
P003775666,7150,S JEFFERY,Chicago,IL,,41.765010075028314,-87.57627512980993
P003833334,1950,W 47TH ST,Chicago,IL,,41.809142,-87.63149699999998
P003783278,3250,W GRAND,Chicago,IL,,41.891646,-87.62965199999998
P003829269,3250,S ARCHER,Chicago,IL,,41.834973778133545,-87.67017101460932
P003907426,7050,N SHERIDAN RD,Chicago,IL,,42.010401,-87.66248499999998
P004000465,50,E HUBBARD,Chicago,IL,,41.890075492248116,-87.62733698121193
P003810420,11150,S VERNON,Chicago,IL,,41.69093399999999,-87.61210599999998
P003872854,3450,W 26 ST,Chicago,IL,,,
P003940446,50,N AUSTIN,Chicago,IL,,41.972096,-87.77824999999999
P003808879,850,W 115,Chicago,IL,,,
P004252482,2750,S KEDZIE,Chicago,IL,,41.87732599999999,-87.70601499999998
P003865011,2550,W 111,Chicago,IL,,,
P003808886,350,W 105 ST,Chicago,IL,,,
P003971528,750,E 79TH ST,Chicago,IL,,41.75099399999999,-87.62219299999998
P003809720,950,W 87TH ST,Chicago,IL,,41.736012917888786,-87.64774676127286
P003875253,3450,W 26TH ST,Chicago,IL,,41.84443104676221,-87.71131040919529
P004191751,2450,W 71ST ST,Chicago,IL,,41.765397,-87.63221399999998
P004253705,7350,N SHERIDAN,Chicago,IL,,42.015250474055684,-87.66481309852855
P003955778,1950,W GARFIELD BLVD,Chicago,IL,,41.79392899999999,-87.67307799999998
P003872098,2350,S PULASKI RD,Chicago,IL,,41.84877399999999,-87.72468499999998
P003960165,150,E 47TH ST,Chicago,IL,,41.809311,-87.62121299999998
P003145256,8750,S MORGAN,Chicago,IL,,41.8817,-87.65203099999998
P003938582,3750,N CENTRAL,Chicago,IL,,41.88153799999999,-87.71584999999997
P003873678,2250,S ROCKWELL ST,Chicago,IL,,41.880662,-87.691068
P004062040,2350,S DRAKE,Chicago,IL,,41.84893497215075,-87.71369850382065
P003787355,6550,S OAKLEY,Chicago,IL,,41.880738,-87.68395199999998
P003878577,2350,S KEDZIE,Chicago,IL,,41.849027050116256,-87.70517250414684
P004286383,2450,W MARQUETTE RD,Chicago,IL,,41.77273,-87.62804399999999
P003995725,6750,S DORCHESTER,Chicago,IL,,41.77184504030889,-87.59113599739914
P003819867,5750,S LAFLIN,Chicago,IL,,41.78949442075978,-87.66202953685385
P003870228,2350,S KOSTNER,Chicago,IL,,41.84892065116279,-87.73442588372093
P003820336,1650,W 59TH ST,Chicago,IL,,41.78725599999999,-87.630318
P003912728,6150,N SHERIDAN,Chicago,IL,,41.99380299999999,-87.655501
P003875216,3850,W 16TH ST,Chicago,IL,,41.8589916,-87.715293
P004063277,1250,S INDEPENDENCE,Chicago,IL,,41.86624799999999,-87.71952699999999
P004314108,6650,S HALSTED,Chicago,IL,,41.88049199999999,-87.647322
P003804111,5550,S ABERDEN,Chicago,IL,,,
P003785339,2550,W ROSEVELT,Chicago,IL,,,
P003984836,150,N DAMEN,Chicago,IL,,41.88407699999999,-87.676715
P004176227,5150,W MADISON,Chicago,IL,,41.88204199999999,-87.62780599999998
P003811958,5950,S MARSHFIELD,Chicago,IL,,41.78558061644906,-87.66558099717268
P004262877,1550,W DEVON,Chicago,IL,,41.998090043477696,-87.66942117395186
P004070142,4050,W MAYPOLE,Chicago,IL,,41.884658994755895,-87.72739366331047
P003924502,6650,S ST LAWRENCE,Chicago,IL,,41.7739467168532,-87.61065611491541
P003980261,1750,W 79TH ST,Chicago,IL,,41.750304425555704,-87.66743546210066
P003016698,4750,S KEDZIE,Chicago,IL,,41.875531,-87.70596999999998
P003786605,2550,N HARLEM,Chicago,IL,,41.927178774499076,-87.80636654111288
P003786801,150,S PULASKI,Chicago,IL,,41.87976199999999,-87.72563699999998
P003872895,2350,S PULASKI RD,Chicago,IL,,41.84877399999999,-87.72468499999998
P004235452,1050,N RUSH ST,Chicago,IL,,41.901169734693866,-87.62770589795917
P003949957,4850,N WESTERN,Chicago,IL,,41.96872214868556,-87.68890855115917
P003397378,7850,S PAULINA,Chicago,IL,,41.751419958630926,-87.66589481917259
P003876702,4250,W CERMAK RD,Chicago,IL,,41.852792,-87.63853199999998
P003930958,2850,N LINCOLN AVE,Chicago,IL,,41.93351609543271,-87.66004673422749
P003806035,7850,S PAULINA ST,Chicago,IL,,41.751419958630926,-87.66589481917259
P004239054,50,E 57TH ST,Chicago,IL,,41.791067702865526,-87.62286323530573
P003878061,2250,S WESTERN,Chicago,IL,,41.85111899999999,-87.68561499999998
P004314276,10250,S LASALLE,Chicago,IL,,,
P003994207,6350,S LANGLEY,Chicago,IL,,41.77924068152182,-87.60836081385608
P003967958,1650,N MILWAUKEE,Chicago,IL,,41.91099708163265,-87.67838412244896
P004314109,6650,S HALSTED,Chicago,IL,,41.88049199999999,-87.647322
P004070147,1150,N SPRINGFIELD,Chicago,IL,,41.902236,-87.72385099999998
P004178701,5250,W MADISON ST,Chicago,IL,,41.88204199999999,-87.62780599999998
P004070146,250,N PULASKI,Chicago,IL,,41.88480768801469,-87.72578630415323
P003767172,3450,W CHICAGO,Chicago,IL,,41.89664299999999,-87.63070499999998
P003802671,8450,S COMMERCIAL,Chicago,IL,,41.741474096577186,-87.55150365409065
P003876051,3250,W 31ST STREET,Chicago,IL,,41.83830100000001,-87.62677300000001
P003795855,5050,W AUGUSTA,Chicago,IL,,41.89861449999998,-87.75278250000069
P003958237,3550,S RHODES,Chicago,IL,,41.82984799999999,-87.614457
P004191702,3550,W CHICAGO,Chicago,IL,,41.89664299999999,-87.63070499999998
P003873815,2450,S WHIPPLE,Chicago,IL,,41.87782299999999,-87.702365
P003967965,2650,W FULLERTON,Chicago,IL,,41.924542,-87.72188199999998
P003940965,4450,N CICERO,Chicago,IL,,41.96149690098783,-87.74756777346643
P003942598,4050,N MILWAUKEE,Chicago,IL,,41.889034,-87.644334
P003871690,1550,S KEDZIE,Chicago,IL,,41.88031699999999,-87.70609999999998
P003207753,5850,S ADA,Chicago,IL,,41.78788399999999,-87.65835599999998
P003853829,2450,E 79TH ST,Chicago,IL,,41.751750324746105,-87.56468844632465
P003770128,3450,W CHICAGO,Chicago,IL,,41.89664299999999,-87.63070499999998
P004098640,3550,S WESTERN BLVD,Chicago,IL,,41.82929000000001,-87.68442899999998
P004284039,6550,S WESTERN,Chicago,IL,,41.88030499999999,-87.686413
P003808109,350,W 115TH ST,Chicago,IL,,41.68529699999999,-87.62478799999998
P004326002,2350,W 71ST,Chicago,IL,,41.765397,-87.63221399999998
P003805517,10250,S MICHIGAN,Chicago,IL,,41.70812899999999,-87.62006499999998
P004317403,11750,S MICHIGAN,Chicago,IL,,41.86753,-87.62402099999998
P003909959,6650,N ASHLAND,Chicago,IL,,41.88193199999999,-87.66689199999998
P003912738,6150,N SHERIDAN,Chicago,IL,,41.99380299999999,-87.655501
P003878062,2650,S KEDZIE,Chicago,IL,,41.87732599999999,-87.70601499999998
P003786805,3450,W OHIO,Chicago,IL,,41.89182,-87.71376599999998
P004255979,2450,S HOMAN,Chicago,IL,,41.84715046885381,-87.70998840392905
P004191706,50,N HOMAN,Chicago,IL,,41.881815,-87.711033
P004284237,7250,S BLACKSTONE,Chicago,IL,,41.76285,-87.58847099999998
P002026462,2850,W WARREN,Chicago,IL,,41.88198023996829,-87.69756458712004
P004111656,6350,S ARTESIAN,Chicago,IL,,41.778139881263975,-87.68482983055739
P003770806,750,N LARAMIE,Chicago,IL,,41.89398777347722,-87.75556373340744
P003397744,6350,S WENTWORTH,Chicago,IL,,41.77952682808322,-87.63013515603271
P003878055,2350,S ALBANY,Chicago,IL,,41.87781199999999,-87.70358
P003951476,5050,N SHERIDAN RD,Chicago,IL,,41.97454300649064,-87.65496126920027
P003397379,7850,S PAULINA,Chicago,IL,,41.751419958630926,-87.66589481917259
P004250801,2250,S HOYNE,Chicago,IL,,41.880681,-87.67907499999998
P003949961,5950,N BROADWAY,Chicago,IL,,41.933605,-87.64466299999998
P003972039,7550,S HALSTED ST,Chicago,IL,,41.88049199999999,-87.647322
P003873212,3150,W 26TH ST ST,Chicago,IL,,41.844523,-87.70442599999998
P004176776,8350,S THROOP ST,Chicago,IL,,41.713757,-87.65523499999998
P003805013,750,E 83RD ST,Chicago,IL,,41.74367999999999,-87.622801
P003810277,11050,S MICHIGAN,Chicago,IL,,41.693284705127354,-87.62102190092025
P003134455,6050,N SHERIDAN RD,Chicago,IL,,41.99195699999999,-87.65544399999999
P003906130,6350,N HERMITAGE,Chicago,IL,,41.88324,-87.67057899999998
P003965901,3450,W MEDILL,Chicago,IL,,41.92373885204281,-87.71312543435411
P004256603,3350,W 26TH ST,Chicago,IL,,41.844458,-87.70929599999998
P003808898,850,W 115,Chicago,IL,,,
P003966185,2350,W DIVISION,Chicago,IL,,41.90381099999999,-87.637016
P004111323,3950,W ROOSEVELT RD,Chicago,IL,,41.867341,-87.63719399999998
P003875258,2550,S SACRAMENTO,Chicago,IL,,41.87971900000001,-87.70116799999998
P003872074,1850,S HAMLIN,Chicago,IL,,41.878931,-87.720764
P003879054,3850,W 31ST ST,Chicago,IL,,41.83830100000001,-87.62677300000001
P003769397,3450,W CHICAGO,Chicago,IL,,41.89664299999999,-87.63070499999998
P003884406,1950,N LINCOLN,Chicago,IL,,41.91720724,-87.63633587999998
P003802886,11950,S HARVARD,Chicago,IL,,41.676804157628986,-87.63103446251766
P003859554,10050,S HALSTED ST,Chicago,IL,,41.88049199999999,-87.647322
P003978886,8050,S ASHLAND,Chicago,IL,,41.880167,-87.66684099999998
P003397732,10350,S PRINCETON,Chicago,IL,,41.70587762788742,-87.63066239115885
P003952294,1150,W BRYN MAWR,Chicago,IL,,41.98363599999999,-87.65931199999999
P003775670,450,E 61ST,Chicago,IL,,41.78374099999999,-87.62379799999998
P003912126,2850,W DEVON,Chicago,IL,,41.99753242227253,-87.70119135273805
P003864177,450,E 79TH ST,Chicago,IL,,41.75097999999999,-87.622996
P004166435,3850,W 13TH ST,Chicago,IL,,41.86569899999999,-87.629432
P004268304,350,W 13TH ST,Chicago,IL,,41.86569899999999,-87.629432
P003767731,3650,W CHICAGO,Chicago,IL,,41.89664299999999,-87.63070499999998
P003878056,3650,W 26TH ST,Chicago,IL,,41.84435860000932,-87.7166454794287
P003965878,1450,N KEDZIE,Chicago,IL,,41.88230099999999,-87.70615999999998
P004256602,3150,W 26TH ST,Chicago,IL,,41.844523,-87.70442599999998
P003878170,2550,S TROY,Chicago,IL,,41.845207430572856,-87.70382790449908
P003952292,5450,N BROADWAY,Chicago,IL,,41.933605,-87.64466299999998
P004191603,350,S HOMAN,Chicago,IL,,41.87618799999999,-87.71084799999998
P004111807,6250,S M L K,Chicago,IL,,,
P004314103,11150,S STATE,Chicago,IL,,41.867991,-87.62735899999998
P004221751,9050,S RACINE,Chicago,IL,,41.71069099999999,-87.652625
P004361703,2650,E 79TH ST,Chicago,IL,,41.75097999999999,-87.622996
P003889991,1050,N RUSH,Chicago,IL,,41.901169734693866,-87.62770589795917
P004283829,3650,W ROOSEVELT,Chicago,IL,,41.867359,-87.63570699999998
P003941292,5650,W MONTROSE,Chicago,IL,,41.96046215316061,-87.76877498864262
P003944614,5050,N WINTHROP,Chicago,IL,,41.974276073901954,-87.65776107585985
P004061658,2750,S HAMLIN,Chicago,IL,,41.878041,-87.72073499999998
P004256802,3350,W DOUGLAS,Chicago,IL,,41.86246799999999,-87.70921199999998
P003784503,1250,N KEELER,Chicago,IL,,41.90395199999999,-87.73125999999998
P003767166,4150,W LAKE ST,Chicago,IL,,41.885745,-87.62949799999998
P003960157,5550,S LA SALLE,Chicago,IL,,41.88127599999999,-87.63234599999998
P003787177,4250,W DIVISION,Chicago,IL,,41.90392299999999,-87.629986
P003808894,1350,S INDIANA,Chicago,IL,,41.67627199999999,-87.61776499999998
P004061732,1450,W GARFIELD,Chicago,IL,,41.793711,-87.66093699999998
P003993201,2950,W FLOURNOY ST,Chicago,IL,,41.87284374479739,-87.69953873521143
P003783590,1450,W PRATT,Chicago,IL,,42.00542957777128,-87.66720064232527
P003970778,2350,N MILWAUKEE,Chicago,IL,,41.92386987556276,-87.69892852273952
P004269678,5550,W NORTH AVE,Chicago,IL,,41.90938832870773,-87.76477466175119
P003879144,3250,W 26TH ST,Chicago,IL,,41.845469,-87.636031
P004166433,3650,W 16TH ST,Chicago,IL,,41.858956699468095,-87.71661541045958
P003812838,6850,S ASHLAND ST,Chicago,IL,,,
P003783282,4850,W ARMITAGE,Chicago,IL,,41.91690523605193,-87.74816467760056
P002026461,3050,W MADISON,Chicago,IL,,41.881917,-87.63676599999998
P003894280,150,W MADISON,Chicago,IL,,41.88204199999999,-87.62780599999998
P004215878,3350,W NORTH,Chicago,IL,,41.91118099999999,-87.631682
P003874726,3350,W DOUGLAS BLVD,Chicago,IL,,41.86246799999999,-87.70921199999998
P004286471,6350,S ALBANY,Chicago,IL,,41.77795384651411,-87.70067533045881
P003949964,5550,N BROADWAY,Chicago,IL,,41.933605,-87.64466299999998
P003872247,6650,S GREENWOOD,Chicago,IL,,41.774093887884185,-87.59970610906055
P004173415,450,N LARAMIE,Chicago,IL,,41.882364,-87.75513999999998
P004285802,450,E 63RD ST,Chicago,IL,,41.780033,-87.622072
P003766280,1150,N KEYSTONE,Chicago,IL,,41.883346,-87.72717
P003767735,350,W OHIO,Chicago,IL,,41.892358828988975,-87.63634098056454
P004158030,6850,S COTTAGE GROVE,Chicago,IL,,41.770393950102346,-87.60570508676973
P003810280,11050,S MICHIGAN,Chicago,IL,,41.693284705127354,-87.62102190092025
P004062042,6250,S INGLESIDE,Chicago,IL,,41.78143562883574,-87.60270024119059
P004215359,1950,N KIMBALL,Chicago,IL,,41.916826,-87.71189599999998
P003968734,1450,N MILWAUKEE,Chicago,IL,,41.90825165286756,-87.67414365514308
P004191677,3550,W CHICAGO,Chicago,IL,,41.89664299999999,-87.63070499999998
P003911520,1450,W GRANVILLE,Chicago,IL,,41.9944816875881,-87.66652589214338
P004046827,550,S WELLS,Chicago,IL,,41.875062584534405,-87.63364454624102
P003970831,2850,W FLETCHER,Chicago,IL,,41.938471866455714,-87.69934340843616
P004061708,4750,S BISHOP,Chicago,IL,,41.86932,-87.66287699999998
P003047493,2650,S KEDZIE,Chicago,IL,,41.87732599999999,-87.70601499999998
P003784054,5350,W DIVERSEY,Chicago,IL,,41.932844,-87.64273799999998
P004238303,350,E 47TH STREET,Chicago,IL,,41.809249,-87.625268
P003767163,3750,W CHICAGO,Chicago,IL,,41.89664299999999,-87.63070499999998
P004208826,1050,W BRYN MAWR,Chicago,IL,,41.98367330386539,-87.65711399223068
P003360433,1550,W 47 ST,Chicago,IL,,,
P003935915,3850,W LONG,Chicago,IL,,,
P003903126,6550,N WINTHROP ST,Chicago,IL,,,
P003808156,350,W 119TH ST,Chicago,IL,,41.677749,-87.646562
P003820503,6150,S ASHLAND,Chicago,IL,,41.874251,-87.666686
P003805523,6950,S ASHLAND,Chicago,IL,,41.874251,-87.666686
P004215885,1350,N CENTRAL PARK,Chicago,IL,,41.88153799999999,-87.71584999999997
P003767165,3650,W CHICAGO,Chicago,IL,,41.89664299999999,-87.63070499999998
P001960736,6150,S EVANS,Chicago,IL,,41.78228969659608,-87.60722853262682
P003769381,3550,W CHICAGO,Chicago,IL,,41.89664299999999,-87.63070499999998
P003782806,1650,N LINDER,Chicago,IL,,41.910586532681926,-87.76303845564584
P003767747,3250,W MADISON,Chicago,IL,,41.881917,-87.63676599999998
P003960556,50,E 57TH ST,Chicago,IL,,41.791067702865526,-87.62286323530573
P003801766,450,E 111TH STREET,Chicago,IL,,41.69260299999999,-87.62160199999998
P003872173,3150,W CERMAK RD,Chicago,IL,,41.852854,-87.63677799999998
P003931859,4650,N SHERIDAN,Chicago,IL,,41.966374,-87.654792
P003863371,10550,S HALSTED,Chicago,IL,,41.88049199999999,-87.647322
P003811089,11050,S MICHIGAN,Chicago,IL,,41.693284705127354,-87.62102190092025
P003876651,3950,W ROOSEVELT,Chicago,IL,,41.867341,-87.63719399999998
P003949014,4950,N BROADWAY,Chicago,IL,,41.97222342857142,-87.65975869387755
P003971416,1450,W 63RD,Chicago,IL,,41.780011,-87.62823099999999
P003995833,4350,S CALIFORNIA,Chicago,IL,,41.875663,-87.696145
P004236801,950,N CAMBRIDGE,Chicago,IL,,41.89938147229612,-87.64186315416887
P003777479,6250,S KING,Chicago,IL,,41.781370430840774,-87.61565303821236
P003799502,5250,W ADAMS,Chicago,IL,,41.879438,-87.62935199999998
P003945088,5050,N CLARK,Chicago,IL,,41.973675355331466,-87.66812163899743
P004314107,6650,S HALSTED,Chicago,IL,,41.88049199999999,-87.647322
P003873731,3450,W 26TH ST,Chicago,IL,,41.84443104676221,-87.71131040919529
P003940748,5450,W BELMONT,Chicago,IL,,41.93862245782714,-87.76291545808724
P003330725,10350,S LA SALLE,Chicago,IL,,41.881314,-87.63234699999998
P003767729,750,N TRUMBULL,Chicago,IL,,41.894598197468326,-87.71262855948903
P003770768,750,S CALIFORNIA,Chicago,IL,,41.87162262649676,-87.6960397083717
P003810278,11050,S MICHIGAN,Chicago,IL,,41.693284705127354,-87.62102190092025
